~VERSION INFORMATION
 VERS.                          2.0   : CWLS LOG ASCII STANDARD - VERSION 2.0
 WRAP.                          NO    : ONE LINE PER DEPTH STEP
#
~Well Information Section
#MNEM     .UNIT     DATA                DESCRIPTION
#-----    -----     --------            --------------
 STRT     .M        154.9908            : START DEPTH
 STOP     .M        2907.9443           : END DEPTH
 STEP     .M        0.0000              : INCREMENT DEPTH
 NULL     .         -999.2500           : NULL VALUE
 COMP     .                             :
 WELL     .         Well-1P             : WELL NAME
 EKB      .M        40.0000             : KELLY BUSHING ELEVATION
 EGL      .M        33.0000             : GROUND LEVEL ELEVATION
 FLD      .                              :
 LOC      . X = 300000.7600 Y = 2000000.00: WELL LOCATION
 PROV     .                              :
 SRVC     .                              :
 PROV     .                              :
 DATE     .                              :
 UWI      .         O.1051878.20         : UNIQUE WELL ID
 API      .                              :
#
~Curve Information Section
#MNEM     .UNIT               Curve #DESCRIPTION
#-----    -----               ----   --------------
 DEPTH    .M                  : 1     Name = Domain Curve - Type = DEPTH
 GR       .gAPI               : 2     Name = Gamma Ray 1 - Type = Gamma Ray
 RT      .ohm-m              : 3     Name = Resistivity - Type = Resistivity
 NPHI     .ft3/ft3            : 4     Name = Neutron Porosity 1 - Type = Neutron Porosity
 SW       .Dec                : 5     Name = Water Saturation 1 - Type = Water Saturation
 PHIE     .Dec                : 6     Name = Porosity 1 - Type = Porosity
 VCL      .Dec                : 7     Name = Vcl - Type = Volumetric
 RHOBMOD  .g/cc               : 8     Name = Density - Type = Density
 DTSM     .m/s                : 9     Name = S-wave - Type = S-wave
 DT       .m/s                : 10    Name = P-wave - Type = P-wave
 PIMPMOD  .(m/s)*(g/cc)       : 11    Name = P-Impedance_trans - Type = P-Impedance
 SIMPMOD  .(m/s)*(g/cc)       : 12    Name = S-Impedance_trans - Type = S-Impedance
 VPVSMOD  .unitless           : 13    Name = VpVs_Ratio_trans - Type = VpVs_Ratio
~A (ASCII LOG DATA)
# ...
 2749.9055         89.6419          3.2431          0.3268          1.0000          0.0087          0.8289          2.4753       1677.8845       3265.6252       8083.4023       4153.2676          1.9463
 2750.0581         89.6908          2.1359          0.3303          1.0000          0.0001          0.8236          2.4383       1699.6317       3311.1604       8073.6021       4144.2119          1.9482
 2750.2104         87.5364          1.5010          0.3332          1.0000          0.0001          0.8387          2.4280       1686.6149       3298.6091       8009.0229       4095.1008          1.9558
 2750.3628         86.3141          1.3417          0.3405          1.0000          0.0001          0.8239          2.4313       1821.5112       3464.9692       8424.3799       4428.6401          1.9022
 2750.5151         85.1024          1.3300          0.3429          1.0000          0.0001          0.7428          2.4488       2024.4431       3710.6897       9086.7373       4957.4565          1.8329
 2750.6675         82.8618          1.3119          0.3450          1.0000          0.0001          0.5551          2.4239       1912.8826       3580.5735       8678.9521       4636.6357          1.8718
 2750.8201         84.5236          1.3632          0.3542          1.0000          0.0161          0.3919          2.4329       1934.9054       3594.0833       8744.0449       4707.4312          1.8575
 2750.9724         77.8080          1.4448          0.3706          0.5951          0.2387          0.1600          2.1599       1972.3386       3485.3472       7528.0010       4260.0542          1.7671
 2751.1248         82.7928          1.3336          0.3844          0.4602          0.3265          0.0277          2.1643       1939.0994       3350.1257       7250.6772       4196.7925          1.7277
 2751.2771         87.0964          1.3293          0.3800          0.4314          0.3385          0.0052          2.1472       1910.2395       3304.8809       7096.2407       4101.6665          1.7301
 2751.4297         85.6830          1.3795          0.3539          0.4283          0.2923          0.0601          2.1339       1936.9187       3372.1658       7195.8643       4133.1909          1.7410
 2751.5820         92.1276          1.4984          0.3273          0.4374          0.2487          0.1119          2.1430       2048.6545       3538.6445       7583.3149       4390.2666          1.7273
 2751.7344         88.6327          1.7538          0.3188          0.4691          0.2401          0.1134          2.1590       2079.4373       3585.0688       7740.1636       4489.5049          1.7241
 2751.8867         87.4309          2.1713          0.3235          0.4104          0.2499          0.0927          2.1957       1995.8158       3446.8210       7568.1846       4382.2124          1.7270
 2752.0393         83.1394          3.2194          0.3226          0.4329          0.1881          0.2101          2.2145       1865.2776       3324.5244       7362.1592       4130.6572          1.7823
 2752.1917         79.8405          4.9762          0.3110          0.6961          0.1518          0.2521          2.2765       1784.1295       3293.9607       7498.7017       4061.5708          1.8463
 2752.3440         80.5892          6.2735          0.3098          0.8894          0.1551          0.2487          2.2675       1597.6294       3113.3584       7059.5400       3622.6245          1.9487
 2752.4963         76.0361          7.2682          0.3253          0.8171          0.1231          0.2817          2.2738       1632.9126       3157.2341       7178.9185       3712.9165          1.9335
 2752.6487         73.2162          7.7916          0.3409          1.0000          0.0032          0.4052          2.4513       1973.8499       3644.4512       8933.6426       4838.4980          1.8464
 2752.8013         80.3891          8.7559          0.3367          1.0000          0.0001          0.6300          2.4076       1820.9214       3472.1726       8359.6025       4384.0503          1.9068
 2752.9536         79.7802         10.1709          0.3288          1.0000          0.0001          0.8355          2.4287       1688.9559       3301.2688       8017.7915       4101.9673          1.9546
 2753.1060         73.5752         10.7848          0.3299          1.0000          0.0001          0.8758          2.4200       1659.4309       3267.7256       7907.8960       4015.8230          1.9692
 2753.2583         67.8288         11.2954          0.3353          1.0000          0.0001          0.9117          2.4122       1633.1342       3237.8501       7810.3418       3939.4460          1.9826
 2753.4109         71.6744         11.6030          0.3344          1.0000          0.0001          0.9123          2.4121       1632.7375       3237.3997       7808.9321       3938.3264          1.9828
 2753.5632         76.1867         11.9857          0.3255          1.0000          0.0001          0.8995          2.4148       1642.0620       3247.9929       7843.2529       3965.2512          1.9780
 2753.7156         73.2107         12.3644          0.3179          1.0000          0.0001          0.8613          2.4231       1670.0377       3279.7759       7947.2251       4046.6685          1.9639
 2753.8679         75.8327         12.1692          0.3183          1.0000          0.0001          0.8740          2.4204       1660.7500       3269.2244       7912.8306       4019.6792          1.9685
 2754.0205         74.2694         11.9654          0.3349          1.0000          0.0001          0.9147          2.4116       1630.9657       3235.3865       7802.4585       3933.2371          1.9837
 2754.1729         72.2378         11.0645          0.3366          1.0000          0.0001          0.9173          2.4110       1698.8068       3319.8279       8004.1050       4095.8232          1.9542
 2754.3252         75.9800         10.4735          0.3422          1.0000          0.0001          0.8578          2.4239       1672.6132       3282.7019       7956.9409       4054.2468          1.9626
 2754.4775         77.1423          9.8343          0.3435          1.0000          0.0001          0.7605          2.4450       1743.8473       3363.6301       8224.0752       4263.7065          1.9289
 2754.6299         75.6002          8.8919          0.3469          1.0000          0.0001          0.6038          2.4133       1840.0631       3493.9192       8431.8750       4440.6245          1.8988
 2754.7825         73.3064          7.7184          0.3498          1.0000          0.0001          0.4137          2.4546       1979.2749       3652.0764       8964.3867       4858.3281          1.8452
 2754.9348         81.4231          6.2733          0.3547          1.0000          0.0389          0.3587          2.4024       1873.2264       3513.1929       8440.0947       4500.2393          1.8755
 2755.0872         79.9881          2.9292          0.3419          0.6522          0.1126          0.2816          2.2961       1661.0095       3148.5469       7229.3779       3813.8438          1.8956
 2755.2395         89.6911          2.7671          0.3324          0.4658          0.1772          0.2134          2.2341       1605.1028       3010.2512       6725.2026       3585.9602          1.8754
 2755.3921         73.8930          3.7447          0.3283          0.4017          0.2092          0.1705          2.1860       1659.6718       3057.2222       6683.0879       3628.0427          1.8421
 2755.5444         72.9725          6.3940          0.3282          0.3947          0.2079          0.1727          2.1872       1662.9792       3059.9675       6692.7612       3637.2683          1.8401
 2755.6968         72.9509          7.5518          0.3231          0.4098          0.1894          0.1906          2.2150       1719.7217       3136.7622       6947.9282       3809.1833          1.8240
 2755.8491         77.0858         10.2889          0.3183          0.4256          0.1837          0.1691          2.2896       1575.6295       2939.5745       6730.4492       3607.5613          1.8657
