~VERSION INFORMATION
 VERS.                          2.0   : CWLS LOG ASCII STANDARD - VERSION 2.0
 WRAP.                          NO    : ONE LINE PER DEPTH STEP
#
~Well Information Section
#MNEM     .UNIT     DATA                DESCRIPTION
#-----    -----     --------            --------------
 STRT     .M        154.9908            : START DEPTH
 STOP     .M        2907.9443           : END DEPTH
 STEP     .M        0.0000              : INCREMENT DEPTH
 NULL     .         -999.2500           : NULL VALUE
 COMP     .                             :
 WELL     .         Well-1P             : WELL NAME
 EKB      .M        40.0000             : KELLY BUSHING ELEVATION
 EGL      .M        33.0000             : GROUND LEVEL ELEVATION
 FLD      .                              :
 LOC      . X = 300000.7600 Y = 2000000.00: WELL LOCATION
 PROV     .                              :
 SRVC     .                              :
 PROV     .                              :
 DATE     .                              :
 UWI      .         O.1051878.20         : UNIQUE WELL ID
 API      .                              :
#
~Curve Information Section
#MNEM     .UNIT               Curve #DESCRIPTION
#-----    -----               ----   --------------
 DEPTH    .M                  : 1     Name = Domain Curve - Type = DEPTH
 GR       .gAPI               : 2     Name = Gamma Ray 1 - Type = Gamma Ray
 RT      .ohm-m              : 3     Name = Resistivity - Type = Resistivity
 NPHI     .ft3/ft3            : 4     Name = Neutron Porosity 1 - Type = Neutron Porosity
 SW       .Dec                : 5     Name = Water Saturation 1 - Type = Water Saturation
 PHIE     .Dec                : 6     Name = Porosity 1 - Type = Porosity
 VCL      .Dec                : 7     Name = Vcl - Type = Volumetric
 RHOBMOD  .g/cc               : 8     Name = Density - Type = Density
 DTSM     .m/s                : 9     Name = S-wave - Type = S-wave
 DT       .m/s                : 10    Name = P-wave - Type = P-wave
 PIMPMOD  .(m/s)*(g/cc)       : 11    Name = P-Impedance_trans - Type = P-Impedance
 SIMPMOD  .(m/s)*(g/cc)       : 12    Name = S-Impedance_trans - Type = S-Impedance
 VPVSMOD  .unitless           : 13    Name = VpVs_Ratio_trans - Type = VpVs_Ratio
~A (ASCII LOG DATA)
# ...
 2603.6016         87.9778          1.5536          0.2649          1.0000          0.0001          0.9011          2.4145       1764.9391       3400.6980       8210.9854       4261.4453          1.9268
 2603.7539         86.4280          1.5560          0.2691          1.0000          0.0001          0.9113          2.4193       1759.4489       3392.2236       8206.8066       4256.6348          1.9280
 2603.9065         89.2443          1.5516          0.2758          1.0000          0.0001          0.9216          2.4325       1756.2393       3383.6558       8230.7422       4272.0518          1.9266
 2604.0588         90.5231          1.5009          0.2809          1.0000          0.0001          0.8978          2.4222       1715.0244       3336.0154       8080.4961       4154.1318          1.9452
 2604.2112         91.9560          1.4857          0.2850          1.0000          0.0001          0.8492          2.4258       1802.9659       3443.9001       8354.2129       4373.6348          1.9101
 2604.3635         94.6026          1.4330          0.2881          1.0000          0.0001          0.8155          2.4331       1918.1409       3584.3125       8720.9902       4667.0283          1.8686
 2604.5161         95.1390          1.4378          0.2912          1.0000          0.0001          0.8266          2.4307       1963.1257       3641.0276       8850.2461       4771.7700          1.8547
 2604.6685         89.4630          1.5813          0.3050          1.0000          0.0001          0.8797          2.4191       1780.6255       3418.5193       8269.7402       4307.5112          1.9198
 2604.8208         93.0259          1.6223          0.3223          1.0000          0.0001          0.8835          2.4183       1921.4174       3593.6431       8690.5068       4646.5635          1.8703
 2604.9731         89.5725          1.6662          0.3447          1.0000          0.0001          0.8774          2.4196       1695.3905       3312.5037       8014.9341       4102.1670          1.9538
 2605.1255         91.1443          1.7130          0.3630          1.0000          0.0001          0.8818          2.4187       1779.1056       3416.7925       8264.1963       4303.1226          1.9205
 2605.2781         87.9838          1.8747          0.3689          1.0000          0.0001          0.9053          2.4136       1761.8947       3397.2395       8199.5771       4252.5088          1.9282
 2605.4304         90.9180          1.9813          0.3703          1.0000          0.0001          0.9312          2.4304       1694.8771       3308.2046       8040.2603       4119.2290          1.9519
 2605.5828         92.8583          1.8992          0.3699          1.0000          0.0001          0.9200          2.4698       1767.8373       3385.0203       8360.3232       4366.2046          1.9148
 2605.7351         87.8681          1.7236          0.3695          1.0000          0.0001          0.9149          2.4709       1887.2012       3532.8484       8729.3154       4663.0854          1.8720
 2605.8877         81.1713          1.7144          0.3706          1.0000          0.0001          0.9157          2.4707       1861.5126       3501.0071       8649.9385       4599.2393          1.8807
 2606.0400         77.4003          1.8591          0.3731          1.0000          0.0001          0.9235          2.4690       1908.8582       3560.4043       8790.6387       4712.9712          1.8652
 2606.1924         74.4244          2.0564          0.3751          1.0000          0.0001          0.9388          2.5433       1891.5498       3512.9839       8934.5713       4810.7783          1.8572
 2606.3447         75.9140          2.1708          0.3721          1.0000          0.0001          0.9584          2.5391       1707.2540       3285.6494       8342.5918       4334.8887          1.9245
 2606.4973         74.1108          1.9119          0.3733          1.0000          0.0001          0.9793          2.5346       1659.3651       3227.8005       8181.1831       4205.8267          1.9452
 2606.6497         75.7792          1.9391          0.3784          1.0000          0.0001          0.9913          2.4543       1715.6133       3325.6890       8162.2383       4210.6294          1.9385
 2606.8020         77.4360          2.0075          0.3786          1.0000          0.0001          0.9601          2.4611       1882.0936       3529.9973       8687.6768       4632.0210          1.8756
 2606.9543         79.5193          1.8081          0.3655          1.0000          0.0001          0.9579          2.4616       1883.6908       3531.8118       8693.9082       4636.8936          1.8749
 2607.1067         72.3815          2.2620          0.3449          1.0000          0.0001          0.9066          2.4727       1921.2666       3574.5015       8838.6699       4750.7163          1.8605
 2607.2593         70.2633          2.9256          0.3354          1.0000          0.0001          0.8586          2.4831       1956.4006       3614.4167       8974.9580       4857.9385          1.8475
 2607.4116         71.6888          3.1311          0.3366          1.0000          0.0001          0.8371          2.4508       1818.0909       3453.9248       8464.8789       4455.7773          1.8998
 2607.5640         70.1244          2.1602          0.3371          1.0000          0.0001          0.7966          2.4596       1991.3411       3665.9241       9016.7070       4897.9023          1.8409
 2607.7163         80.1220          1.5746          0.3298          1.0000          0.0001          0.7651          2.4440       2211.5549       3944.7537       9640.9775       5405.0400          1.7837
 2607.8689         82.9504          1.4902          0.3183          1.0000          0.0001          0.7439          2.4486       2178.7793       3902.4172       9555.4590       5334.9590          1.7911
 2608.0212         86.9110          1.5186          0.3146          1.0000          0.0001          0.7633          2.4444       2009.4740       3693.6833       9028.8398       4911.9585          1.8381
 2608.1736         85.4528          1.4909          0.3232          1.0000          0.0001          0.8211          2.4319       1967.1471       3645.5962       8865.7256       4783.9053          1.8532
 2608.3259         83.7870          1.4381          0.3325          1.0000          0.0001          0.8547          2.4246       1889.4413       3551.7073       8611.4688       4581.1392          1.8798
 2608.4785         84.4639          1.4335          0.3320          1.0000          0.0001          0.8076          2.4348       1923.9434       3590.9048       8743.1348       4684.4170          1.8664
 2608.6309         86.4729          1.3889          0.3245          1.0000          0.0001          0.7400          2.4494       1882.8676       3534.6755       8657.8340       4611.8955          1.8773
 2608.7832         84.1488          1.3901          0.3183          1.0000          0.0001          0.7479          2.4477       1877.1012       3528.1243       8635.7900       4594.5806          1.8796
 2608.9355         81.6965          1.5697          0.3148          1.0000          0.0001          0.6904          2.4174       1852.8542       3508.5127       8481.4785       4479.0898          1.8936
 2609.0879         77.3446          1.6189          0.3146          1.0000          0.0001          0.6048          2.4131       1839.3326       3493.0896       8429.1748       4438.4937          1.8991
 2609.2405         81.2844          1.4881          0.3109          1.0000          0.0001          0.5732          2.4200       1862.4935       3519.4023       8516.9541       4507.2344          1.8896
 2609.3928         83.6892          1.4910          0.3013          1.0000          0.0001          0.5748          2.4196       1898.4462       3564.1726       8623.8721       4593.4805          1.8774
 2609.5452         93.1735          1.5827          0.2860          1.0000          0.0001          0.5848          2.4175       1871.6038       3531.6113       8537.6709       4524.6021          1.8869
