~VERSION INFORMATION
 VERS.                          2.0   : CWLS LOG ASCII STANDARD - VERSION 2.0
 WRAP.                          NO    : ONE LINE PER DEPTH STEP
#
~Well Information Section
#MNEM     .UNIT     DATA                DESCRIPTION
#-----    -----     --------            --------------
 STRT     .M        154.9908            : START DEPTH
 STOP     .M        2907.9443           : END DEPTH
 STEP     .M        0.0000              : INCREMENT DEPTH
 NULL     .         -999.2500           : NULL VALUE
 COMP     .                             :
 WELL     .         Well-1P             : WELL NAME
 EKB      .M        40.0000             : KELLY BUSHING ELEVATION
 EGL      .M        33.0000             : GROUND LEVEL ELEVATION
 FLD      .                              :
 LOC      . X = 300000.7600 Y = 2000000.00: WELL LOCATION
 PROV     .                              :
 SRVC     .                              :
 PROV     .                              :
 DATE     .                              :
 UWI      .         O.1051878.20         : UNIQUE WELL ID
 API      .                              :
#
~Curve Information Section
#MNEM     .UNIT               Curve #DESCRIPTION
#-----    -----               ----   --------------
 DEPTH    .M                  : 1     Name = Domain Curve - Type = DEPTH
 GR       .gAPI               : 2     Name = Gamma Ray 1 - Type = Gamma Ray
 RT      .ohm-m              : 3     Name = Resistivity - Type = Resistivity
 NPHI     .ft3/ft3            : 4     Name = Neutron Porosity 1 - Type = Neutron Porosity
 SW       .Dec                : 5     Name = Water Saturation 1 - Type = Water Saturation
 PHIE     .Dec                : 6     Name = Porosity 1 - Type = Porosity
 VCL      .Dec                : 7     Name = Vcl - Type = Volumetric
 RHOBMOD  .g/cc               : 8     Name = Density - Type = Density
 DTSM     .m/s                : 9     Name = S-wave - Type = S-wave
 DT       .m/s                : 10    Name = P-wave - Type = P-wave
 PIMPMOD  .(m/s)*(g/cc)       : 11    Name = P-Impedance_trans - Type = P-Impedance
 SIMPMOD  .(m/s)*(g/cc)       : 12    Name = S-Impedance_trans - Type = S-Impedance
 VPVSMOD  .unitless           : 13    Name = VpVs_Ratio_trans - Type = VpVs_Ratio
~A (ASCII LOG DATA)
# ...
 2548.7375         81.4919          0.5190          0.3474          1.0000          0.2717          0.0408          2.2117       1734.3083       3254.7505       7198.5317       3835.7698          1.8767
 2548.8899         82.3118          0.6808          0.3461          1.0000          0.2740          0.0272          2.2108       1789.1990       3321.6836       7343.5776       3955.5610          1.8565
 2549.0425         81.1274          0.7066          0.3393          1.0000          0.2641          0.0142          2.2299       1835.9677       3379.5020       7535.9512       4094.0242          1.8407
 2549.1948         81.6598          0.8691          0.3246          1.0000          0.2441          0.0854          2.2107       1849.1282       3415.7852       7551.2764       4087.8677          1.8472
 2549.3472         91.9115          1.0227          0.3024          1.0000          0.2297          0.1186          2.2273       1879.1188       3456.6873       7699.0791       4185.3613          1.8395
 2549.4995         89.5846          1.1341          0.2754          1.0000          0.2320          0.1101          2.3398       1908.6184       3452.4607       8078.0669       4465.7852          1.8089
 2549.6521         91.0529          1.2267          0.2640          1.0000          0.2436          0.0933          2.3244       1877.3361       3411.4438       7929.5601       4363.6797          1.8172
 2549.8044         90.7573          1.3044          0.2855          1.0000          0.2611          0.0284          2.4338       1893.8013       3382.1545       8231.4873       4609.1333          1.7859
 2549.9568         89.2384          1.2888          0.3330          1.0000          0.2471          0.0232          2.4580       1950.2202       3452.8757       8487.1680       4793.6411          1.7705
 2550.1091         91.6356          1.2605          0.3687          1.0000          0.2362          0.0907          2.3372       1907.2623       3448.9663       8060.9238       4457.6533          1.8083
 2550.2617         88.3689          1.3204          0.3740          1.0000          0.2181          0.1865          2.3463       1851.7307       3388.7925       7951.1235       4344.7153          1.8301
 2550.4141         94.1183          1.3679          0.3648          1.0000          0.2085          0.2303          2.3526       1855.5763       3397.6755       7993.3716       4365.4292          1.8311
 2550.5664        100.6148          1.4133          0.3563          1.0000          0.2224          0.2494          2.3255       1740.9205       3255.7285       7571.1968       4048.5107          1.8701
 2550.7188        105.7289          1.4330          0.3548          1.0000          0.2187          0.2384          2.3340       1811.3604       3342.6306       7801.7002       4227.7153          1.8454
 2550.8711        109.3345          1.4456          0.3698          1.0000          0.2076          0.2248          2.2778       1841.5405       3407.0083       7760.4839       4194.6611          1.8501
 2551.0237        106.3137          1.3796          0.3870          1.0000          0.2193          0.2263          2.3357       1818.0167       3349.9119       7824.3892       4246.3418          1.8426
 2551.1760        109.5499          1.3881          0.3873          1.0000          0.1944          0.3235          2.3557       1792.4097       3327.5256       7838.6523       4222.3794          1.8565
 2551.3284        113.7188          1.3907          0.3691          1.0000          0.1644          0.4572          2.3763       1708.3921       3235.8215       7689.2832       4059.6523          1.8941
 2551.4807        113.1089          1.3939          0.3590          1.0000          0.1412          0.5429          2.3961       1733.2578       3275.0835       7847.4277       4153.0591          1.8896
 2551.6333        106.8542          1.3696          0.3578          1.0000          0.1364          0.5372          2.4964       1781.1692       3302.6924       8244.8418       4446.5107          1.8542
 2551.7856        106.6567          1.3387          0.3578          1.0000          0.1473          0.5114          2.5171       1768.1921       3272.1882       8236.4258       4450.7168          1.8506
 2551.9380        106.3807          1.3182          0.3589          1.0000          0.1327          0.5549          2.4985       1781.8490       3305.1855       8258.0068       4451.9497          1.8549
 2552.0903        107.6670          1.3099          0.3674          1.0000          0.1034          0.6320          2.4392       1810.3877       3380.6182       8246.0039       4415.8975          1.8673
 2552.2429        103.9895          1.3406          0.3789          1.0000          0.0756          0.7001          2.4703       1809.4792       3386.8728       8366.5918       4469.9565          1.8717
 2552.3953         99.2347          1.3157          0.3857          1.0000          0.0472          0.7344          2.3728       1852.9135       3493.4668       8289.2988       4396.5933          1.8854
 2552.5476        101.4592          1.2642          0.3855          1.0000          0.0837          0.6918          2.3811       1763.1984       3355.2637       7989.2183       4198.3516          1.9029
 2552.7000        100.2312          1.2806          0.3731          1.0000          0.0451          0.7375          2.3756       1715.0264       3322.6455       7893.2769       4074.2168          1.9374
 2552.8523         95.9882          1.2840          0.3640          1.0000          0.0160          0.7986          2.4104       1725.6815       3342.8076       8057.5034       4159.5825          1.9371
 2553.0049         94.0619          1.2702          0.3742          1.0000          0.0156          0.7999          2.4108       1726.2067       3343.5911       8060.7295       4161.5391          1.9370
 2553.1572         94.0562          1.2684          0.3899          1.0000          0.0512          0.7288          2.3743       1815.8309       3444.2354       8177.6479       4311.3271          1.8968
 2553.3096         95.0883          1.2802          0.3891          1.0000          0.0652          0.7115          2.3704       1780.1185       3392.1052       8040.6460       4219.5928          1.9056
 2553.4619         98.6131          1.2731          0.3860          1.0000          0.0415          0.7430          2.3804       1724.6317       3335.2729       7939.2837       4105.3130          1.9339
 2553.6145        100.0536          1.2953          0.3987          1.0000          0.0510          0.7291          2.3746       1700.7571       3301.3826       7839.4629       4038.6177          1.9411
 2553.7668        100.9242          1.2857          0.4056          1.0000          0.0987          0.6405          2.3675       1800.1946       3396.0942       8040.2534       4261.9609          1.8865
 2553.9192        104.2590          1.3425          0.3933          1.0000          0.1035          0.6015          2.3679       1810.3892       3405.3708       8063.5771       4286.8203          1.8810
 2554.0715        101.3813          1.3121          0.3875          1.0000          0.0868          0.6836          2.3778       1813.5840       3416.9546       8124.8345       4312.3398          1.8841
 2554.2241         99.2347          1.3569          0.4004          1.0000          0.0284          0.7664          2.3969       1847.1801       3490.2500       8365.7803       4427.5059          1.8895
 2554.3765        103.3383          1.3873          0.4124          1.0000          0.0802          0.6950          2.3862       1829.9717       3438.6853       8205.3906       4366.6782          1.8791
 2554.5288        106.6970          1.3613          0.4109          1.0000          0.0967          0.6435          2.3702       1805.5710       3403.1501       8066.1460       4279.5645          1.8848
 2554.6812        110.1153          1.3843          0.4022          1.0000          0.0613          0.7161          2.3760       1791.7249       3407.1814       8095.4629       4257.1382          1.9016
