~VERSION INFORMATION
 VERS.                          2.0   : CWLS LOG ASCII STANDARD - VERSION 2.0
 WRAP.                          NO    : ONE LINE PER DEPTH STEP
#
~Well Information Section
#MNEM     .UNIT     DATA                DESCRIPTION
#-----    -----     --------            --------------
 STRT     .M        154.9908            : START DEPTH
 STOP     .M        2907.9443           : END DEPTH
 STEP     .M        0.0000              : INCREMENT DEPTH
 NULL     .         -999.2500           : NULL VALUE
 COMP     .                             :
 WELL     .         Well-1P             : WELL NAME
 EKB      .M        40.0000             : KELLY BUSHING ELEVATION
 EGL      .M        33.0000             : GROUND LEVEL ELEVATION
 FLD      .                              :
 LOC      . X = 300000.7600 Y = 2000000.00: WELL LOCATION
 PROV     .                              :
 SRVC     .                              :
 PROV     .                              :
 DATE     .                              :
 UWI      .         O.1051878.20         : UNIQUE WELL ID
 API      .                              :
#
~Curve Information Section
#MNEM     .UNIT               Curve #DESCRIPTION
#-----    -----               ----   --------------
 DEPTH    .M                  : 1     Name = Domain Curve - Type = DEPTH
 GR       .gAPI               : 2     Name = Gamma Ray 1 - Type = Gamma Ray
 RT      .ohm-m              : 3     Name = Resistivity - Type = Resistivity
 NPHI     .ft3/ft3            : 4     Name = Neutron Porosity 1 - Type = Neutron Porosity
 SW       .Dec                : 5     Name = Water Saturation 1 - Type = Water Saturation
 PHIE     .Dec                : 6     Name = Porosity 1 - Type = Porosity
 VCL      .Dec                : 7     Name = Vcl - Type = Volumetric
 RHOBMOD  .g/cc               : 8     Name = Density - Type = Density
 DTSM     .m/s                : 9     Name = S-wave - Type = S-wave
 DT       .m/s                : 10    Name = P-wave - Type = P-wave
 PIMPMOD  .(m/s)*(g/cc)       : 11    Name = P-Impedance_trans - Type = P-Impedance
 SIMPMOD  .(m/s)*(g/cc)       : 12    Name = S-Impedance_trans - Type = S-Impedance
 VPVSMOD  .unitless           : 13    Name = VpVs_Ratio_trans - Type = VpVs_Ratio
~A (ASCII LOG DATA)
# ...
 2877.9216         84.0573          1.7680          0.3236          0.4820          0.1660          0.2659          2.2647       2015.5577       3520.8296       7973.6226       4564.6333          1.7468
 2878.0740         78.1235          1.9097          0.3280          0.4951          0.1730          0.2121          2.2433       1968.4213       3468.5051       7780.8975       4415.7593          1.7621
 2878.2263         81.8796          1.9952          0.3293          0.5604          0.1527          0.1857          2.2871       2063.8816       3601.8577       8237.8086       4720.3037          1.7452
 2878.3789         87.6693          2.0032          0.3267          0.6129          0.1318          0.2045          2.3212       2182.1914       3764.1257       8737.2881       5065.3022          1.7249
 2878.5312         84.3735          1.9601          0.3175          0.5716          0.1349          0.2567          2.3018       1931.2914       3446.6755       7933.5576       4445.4463          1.7846
 2878.6836         83.0013          1.6602          0.3069          0.5277          0.1394          0.3165          2.2784       1870.8431       3365.5901       7668.1602       4262.5288          1.7990
 2878.8359         81.9695          1.3602          0.3020          0.4710          0.1476          0.3518          2.3126       1831.2766       3284.5427       7595.8330       4235.0103          1.7936
 2878.9883         81.5735          1.0603          0.2980          0.4345          0.1550          0.3475          2.2989       2008.1569       3494.7239       8034.0205       4616.5518          1.7403
 2879.1409         82.1768          1.8746          0.2943          0.4805          0.1458          0.3023          2.2747       2219.5549       3783.5156       8606.3623       5048.8213          1.7046
 2879.2932         82.0371          1.8600          0.2880          0.4676          0.1635          0.2650          2.2680       2025.6874       3530.1421       8006.3618       4594.2588          1.7427
 2879.4456         80.8055          1.8375          0.2885          0.4870          0.1603          0.2544          2.2615       1839.8535       3308.7327       7482.6987       4160.8286          1.7984
 2879.5979         78.6938          1.8150          0.2958          0.5213          0.1542          0.2636          2.2651       1854.1454       3338.1487       7561.2407       4199.8247          1.8004
 2879.7505         76.3555          1.8058          0.3010          0.5479          0.1501          0.2718          2.2719       1863.2545       3356.6614       7625.9985       4233.1279          1.8015
 2879.9028         79.5371          1.8176          0.3029          0.5272          0.1577          0.2775          2.2636       2033.6716       3560.8235       8060.2803       4603.4194          1.7509
 2880.0552         80.1268          1.8315          0.2961          0.5362          0.1448          0.2933          2.2751       1867.5453       3361.2910       7647.2729       4248.8521          1.7998
 2880.2075         77.7323          1.8514          0.2870          0.5387          0.1340          0.3223          2.2869       2088.2495       3638.9983       8322.0254       4775.6177          1.7426
 2880.3601         80.9421          1.8472          0.2782          0.5292          0.1310          0.2993          2.2962       1859.5052       3351.1838       7694.9883       4269.7959          1.8022
 2880.5125         80.0012          1.8179          0.2700          0.5141          0.1312          0.3209          2.2900       1842.7913       3328.5457       7622.3696       4219.9917          1.8063
 2880.6648         78.0270          1.8406          0.2646          0.5035          0.1340          0.3473          2.3014       2022.7578       3543.5344       8155.0898       4655.1748          1.7518
 2880.8171         80.1563          1.8633          0.2572          0.5391          0.1233          0.3594          2.2965       1900.1228       3409.1663       7829.1504       4363.6318          1.7942
 2880.9695         82.5084          1.8860          0.2551          0.5090          0.1285          0.3716          2.3056       1878.1539       3367.5547       7764.2339       4330.2715          1.7930
 2881.1221         77.8459          1.8885          0.2564          0.4695          0.1311          0.4010          2.3291       2058.6375       3571.5840       8318.5762       4794.7725          1.7349
 2881.2744         77.4187          1.9312          0.2686          0.4436          0.1322          0.4281          2.3196       2034.8685       3537.9832       8206.7061       4720.0811          1.7387
 2881.4268         81.4561          1.9427          0.2851          0.5191          0.1088          0.4226          2.3124       2010.0022       3544.4739       8196.2422       4647.9292          1.7634
 2881.5791         84.9270          1.8379          0.3014          0.6163          0.0883          0.4225          2.3460       1985.3315       3540.6370       8306.3340       4657.5879          1.7834
 2881.7317         82.6799          1.7190          0.3019          0.5771          0.0988          0.4275          2.3249       2143.5498       3727.4910       8666.0430       4983.5386          1.7389
 2881.8840         85.8543          1.7634          0.3006          0.5153          0.1106          0.4242          2.3243       2108.4695       3660.4709       8508.0332       4900.7158          1.7361
