~VERSION INFORMATION
 VERS.                          2.0   : CWLS LOG ASCII STANDARD - VERSION 2.0
 WRAP.                          NO    : ONE LINE PER DEPTH STEP
#
~Well Information Section
#MNEM     .UNIT     DATA                DESCRIPTION
#-----    -----     --------            --------------
 STRT     .M        154.9908            : START DEPTH
 STOP     .M        2907.9443           : END DEPTH
 STEP     .M        0.0000              : INCREMENT DEPTH
 NULL     .         -999.2500           : NULL VALUE
 COMP     .                             :
 WELL     .         Well-1P             : WELL NAME
 EKB      .M        40.0000             : KELLY BUSHING ELEVATION
 EGL      .M        33.0000             : GROUND LEVEL ELEVATION
 FLD      .                              :
 LOC      . X = 300000.7600 Y = 2000000.00: WELL LOCATION
 PROV     .                              :
 SRVC     .                              :
 PROV     .                              :
 DATE     .                              :
 UWI      .         O.1051878.20         : UNIQUE WELL ID
 API      .                              :
#
~Curve Information Section
#MNEM     .UNIT               Curve #DESCRIPTION
#-----    -----               ----   --------------
 DEPTH    .M                  : 1     Name = Domain Curve - Type = DEPTH
 GR       .gAPI               : 2     Name = Gamma Ray 1 - Type = Gamma Ray
 RT      .ohm-m              : 3     Name = Resistivity - Type = Resistivity
 NPHI     .ft3/ft3            : 4     Name = Neutron Porosity 1 - Type = Neutron Porosity
 SW       .Dec                : 5     Name = Water Saturation 1 - Type = Water Saturation
 PHIE     .Dec                : 6     Name = Porosity 1 - Type = Porosity
 VCL      .Dec                : 7     Name = Vcl - Type = Volumetric
 RHOBMOD  .g/cc               : 8     Name = Density - Type = Density
 DTSM     .m/s                : 9     Name = S-wave - Type = S-wave
 DT       .m/s                : 10    Name = P-wave - Type = P-wave
 PIMPMOD  .(m/s)*(g/cc)       : 11    Name = P-Impedance_trans - Type = P-Impedance
 SIMPMOD  .(m/s)*(g/cc)       : 12    Name = S-Impedance_trans - Type = S-Impedance
 VPVSMOD  .unitless           : 13    Name = VpVs_Ratio_trans - Type = VpVs_Ratio
~A (ASCII LOG DATA)
# ...
 2804.7695         77.6017          2.0369          0.3336          0.5182          0.2105          0.3018          2.2228       1831.4297       3287.1614       7306.7021       4070.9019          1.7949
 2804.9221         79.3489          2.7954          0.3492          0.6441          0.1855          0.3918          2.2534       1657.7527       3109.9016       7007.8525       3735.5801          1.8760
 2805.0745         81.0961          2.2211          0.3596          0.6778          0.1511          0.5004          2.2890       1806.9298       3314.0596       7585.8823       4136.0625          1.8341
 2805.2268         82.8433          1.9880          0.3640          0.6563          0.1370          0.5447          2.3013       1728.7953       3216.4924       7402.1143       3978.4766          1.8605
 2805.3792         80.2326          2.2396          0.3560          0.5250          0.1534          0.4897          2.3546       1674.0547       3085.0896       7264.1519       3941.7290          1.8429
 2805.5315         79.6624          2.2206          0.3386          0.4204          0.1885          0.3672          2.2382       1765.4777       3189.0615       7137.7573       3951.4919          1.8063
 2805.6841         78.9207          2.3224          0.3336          0.3806          0.2286          0.2465          2.1954       1685.6376       3068.1787       6735.8794       3700.6487          1.8202
 2805.8364         75.1438          2.9188          0.3255          0.3836          0.2567          0.1497          2.2479       2027.7733       3457.0095       7771.0117       4558.2314          1.7048
 2805.9888         73.4270          3.8528          0.3153          0.4237          0.2654          0.1029          2.2464       1951.6497       3367.6177       7565.0166       4384.1860          1.7255
 2806.1411         76.2492          4.7028          0.2978          0.5522          0.2534          0.1091          2.1961       1756.8738       3184.3916       6993.2422       3858.2705          1.8125
 2806.2937         75.4996          5.0900          0.2957          0.6339          0.2416          0.1313          2.2165       1838.2535       3307.2378       7330.4927       4074.4890          1.7991
 2806.4460         76.5524          5.0278          0.2854          0.6434          0.1894          0.2807          2.2340       1658.0977       3114.1792       6957.0762       3704.1902          1.8782
 2806.5984         72.2624          4.2395          0.2850          0.5885          0.1313          0.4606          2.2872       1495.8959       2918.2090       6674.5273       3421.4131          1.9508
 2806.7507         76.5274          3.3150          0.2763          0.5985          0.1028          0.5082          2.3246       1818.4850       3326.9822       7733.9028       4227.2500          1.8295
 2806.9033         75.6884          2.8024          0.2797          0.6236          0.1040          0.4808          2.3303       1635.9058       3103.9468       7233.1274       3812.1514          1.8974
 2807.0557         73.1663          2.2942          0.2837          0.6715          0.1263          0.4164          2.3478       1609.0575       3062.2639       7189.5835       3777.7451          1.9031
 2807.2080         75.5478          2.2059          0.2943          0.6806          0.1412          0.4072          2.3258       1757.5212       3246.8953       7551.6289       4087.6428          1.8474
 2807.3604         77.8376          1.9752          0.3071          0.6339          0.1818          0.3167          2.2751       1671.0748       3118.5254       7094.9570       3801.8623          1.8662
 2807.5127         81.6398          1.6917          0.3152          0.6063          0.2280          0.1877          2.3024       1870.1619       3318.6638       7640.8921       4305.8608          1.7745
 2807.6653         87.1027          1.5472          0.3070          0.5952          0.2357          0.1545          2.2962       1865.6968       3307.3516       7594.3408       4284.0132          1.7727
 2807.8176         85.8310          1.5017          0.2935          0.5858          0.2107          0.2251          2.2438       2045.1973       3562.5198       7993.5815       4589.0137          1.7419
 2807.9700         83.4479          1.4962          0.2843          0.5791          0.1925          0.2961          2.2211       1892.6896       3391.3567       7532.5425       4203.8530          1.7918
 2808.1223         85.5292          1.7178          0.2942          0.6005          0.1917          0.3090          2.2210       1832.3190       3322.4600       7379.1836       4069.5803          1.8133
 2808.2749         83.0717          1.6770          0.3140          0.7178          0.1880          0.3372          2.2292       1776.4869       3283.1199       7318.7305       3960.1445          1.8481
 2808.4272         81.8991          1.6431          0.3333          0.8247          0.1760          0.3975          2.2803       1889.0436       3440.6304       7845.6689       4307.5859          1.8214
 2808.5796         81.0747          1.8785          0.3355          0.8745          0.1885          0.3224          2.3571       1864.8942       3388.4573       7986.9326       4395.7422          1.8170
 2808.7319         80.8377          2.4873          0.3295          0.8308          0.1902          0.2779          2.3609       1743.7869       3224.2415       7612.1113       4116.9062          1.8490
 2808.8845         74.3872          3.9370          0.3319          0.5653          0.1595          0.3946          2.3680       1720.4543       3144.3533       7445.8286       4074.0359          1.8276
 2809.0369         74.9581          3.9618          0.3214          0.4190          0.1586          0.4090          2.2785       1664.5336       3068.8918       6992.4702       3792.6399          1.8437
 2809.1892         75.8998          4.0208          0.3166          0.3921          0.1768          0.3679          2.2554       1510.4811       2866.7180       6465.5957       3406.7390          1.8979
 2809.3416         75.4236          3.5348          0.3174          0.3854          0.1998          0.3047          2.2307       1613.8671       2986.8828       6662.8394       3600.0532          1.8508
 2809.4939         76.0182          3.9668          0.3335          0.3765          0.2135          0.2886          2.2110       1574.0765       2933.1177       6485.1230       3480.2832          1.8634
 2809.6465         75.4226          4.3988          0.3489          0.3963          0.2272          0.2693          2.2715       1558.1566       2888.3335       6560.8501       3539.3530          1.8537
 2809.7988         76.9722          4.8309          0.3582          0.5171          0.2309          0.2767          2.2722       1593.7094       2961.1045       6728.2222       3621.2266          1.8580
 2809.9512         76.5552          5.2629          0.3590          0.6236          0.2204          0.3069          2.2904       1554.5553       2940.6218       6735.2002       3560.5535          1.8916
 2810.1035         73.4162          5.2413          0.3578          0.6782          0.2001          0.3617          2.2381       1568.6036       3003.7595       6722.7144       3510.6919          1.9149
 2810.2561         73.7973          5.9650          0.3527          0.8323          0.1681          0.4447          2.2837       1627.2865       3121.6208       7128.8457       3716.2341          1.9183
 2810.4084         74.1784          6.6887          0.3452          0.9750          0.1744          0.3763          2.2980       1599.4595       3114.7888       7157.7852       3675.5581          1.9474
 2810.5608         74.5595          7.4123          0.3455          1.0000          0.1627          0.3788          2.3961       1663.1292       3173.6726       7604.4370       3985.0239          1.9083
 2810.7131         70.4481          8.1360          0.3486          1.0000          0.1208          0.4940          2.4403       1559.4139       3056.9829       7459.9556       3805.4377          1.9603
