~VERSION INFORMATION
 VERS.                          2.0   : CWLS LOG ASCII STANDARD - VERSION 2.0
 WRAP.                          NO    : ONE LINE PER DEPTH STEP
#
~Well Information Section
#MNEM     .UNIT     DATA                DESCRIPTION
#-----    -----     --------            --------------
 STRT     .M        154.9908            : START DEPTH
 STOP     .M        2907.9443           : END DEPTH
 STEP     .M        0.0000              : INCREMENT DEPTH
 NULL     .         -999.2500           : NULL VALUE
 COMP     .                             :
 WELL     .         Well-1P             : WELL NAME
 EKB      .M        40.0000             : KELLY BUSHING ELEVATION
 EGL      .M        33.0000             : GROUND LEVEL ELEVATION
 FLD      .                              :
 LOC      . X = 300000.7600 Y = 2000000.00: WELL LOCATION
 PROV     .                              :
 SRVC     .                              :
 PROV     .                              :
 DATE     .                              :
 UWI      .         O.1051878.20         : UNIQUE WELL ID
 API      .                              :
#
~Curve Information Section
#MNEM     .UNIT               Curve #DESCRIPTION
#-----    -----               ----   --------------
 DEPTH    .M                  : 1     Name = Domain Curve - Type = DEPTH
 GR       .gAPI               : 2     Name = Gamma Ray 1 - Type = Gamma Ray
 RT      .ohm-m              : 3     Name = Resistivity - Type = Resistivity
 NPHI     .ft3/ft3            : 4     Name = Neutron Porosity 1 - Type = Neutron Porosity
 SW       .Dec                : 5     Name = Water Saturation 1 - Type = Water Saturation
 PHIE     .Dec                : 6     Name = Porosity 1 - Type = Porosity
 VCL      .Dec                : 7     Name = Vcl - Type = Volumetric
 RHOBMOD  .g/cc               : 8     Name = Density - Type = Density
 DTSM     .m/s                : 9     Name = S-wave - Type = S-wave
 DT       .m/s                : 10    Name = P-wave - Type = P-wave
 PIMPMOD  .(m/s)*(g/cc)       : 11    Name = P-Impedance_trans - Type = P-Impedance
 SIMPMOD  .(m/s)*(g/cc)       : 12    Name = S-Impedance_trans - Type = S-Impedance
 VPVSMOD  .unitless           : 13    Name = VpVs_Ratio_trans - Type = VpVs_Ratio
~A (ASCII LOG DATA)
# ...
 2829.1536         74.5628          1.8206          0.3434          0.2443          0.2065          0.3149          2.2916       2042.4768       3459.6038       7928.0278       4680.5400          1.6938
 2829.3059         76.4064          1.9817          0.3416          0.2093          0.2071          0.3251          2.2862       2033.7897       3441.3594       7867.6357       4649.6499          1.6921
 2829.4585         78.4544          1.9670          0.3447          0.2059          0.1965          0.3312          2.2945       1763.7227       3105.9736       7126.6567       4046.8618          1.7610
 2829.6108         83.6564          2.0127          0.3506          0.2089          0.1883          0.3204          2.2994       2040.6915       3449.6521       7932.1304       4692.3662          1.6904
 2829.7632         86.1379          2.0745          0.3563          0.2607          0.1905          0.3647          2.3033       1889.1602       3277.7795       7549.7095       4351.3022          1.7350
 2829.9155         80.4564          1.8823          0.3536          0.5212          0.1959          0.3638          2.3186       1835.3739       3272.0503       7586.5757       4255.4980          1.7828
 2830.0681         78.1299          1.6412          0.3451          0.5543          0.1826          0.3999          2.3357       1914.8324       3382.3181       7900.0806       4472.4741          1.7664
 2830.2205         80.8607          1.6217          0.3528          0.5430          0.1492          0.5218          2.3661       1906.6797       3381.6785       8001.3896       4511.3950          1.7736
 2830.3728         80.1109          1.6056          0.3649          0.2871          0.1156          0.6539          2.3779       2001.9075       3452.8323       8210.4893       4760.3354          1.7248
 2830.5251         85.6769          1.7928          0.3728          0.2181          0.0948          0.6400          2.3876       1889.2361       3295.6997       7868.8125       4510.7397          1.7445
 2830.6775         82.8933          2.0002          0.3686          0.2456          0.0703          0.6036          2.4178       2055.6743       3506.5312       8478.0908       4970.2095          1.7058
 2830.8301         80.9823          2.1781          0.3678          0.2604          0.1045          0.5158          2.3883       2015.6460       3451.3816       8242.9346       4813.9673          1.7123
 2830.9824         76.8848          1.8709          0.3599          0.3175          0.1266          0.3861          2.4689       2030.4430       3439.2102       8491.0664       5012.9604          1.6938
 2831.1348         81.6319          1.7929          0.3540          0.3364          0.1218          0.3988          2.3849       2015.5852       3458.4014       8247.9414       4806.9692          1.7158
 2831.2871         80.2620          2.5972          0.3533          0.3312          0.1171          0.4411          2.3851       2009.6057       3453.5276       8237.0078       4793.1104          1.7185
 2831.4397         79.8937          3.7243          0.3478          0.3586          0.1230          0.4420          2.3771       1986.6315       3431.0359       8155.9155       4722.4219          1.7271
 2831.5920         78.2692          4.4102          0.3371          0.4439          0.1470          0.3918          2.3587       1948.3839       3398.1638       8015.2490       4595.6533          1.7441
 2831.7444         76.9241          4.5661          0.3299          0.4666          0.1582          0.3373          2.3500       1830.9618       3252.3628       7643.0522       4302.7603          1.7763
 2831.8967         73.2497          4.8897          0.3338          0.4396          0.1542          0.3047          2.3543       1891.6228       3318.6331       7813.0581       4453.4478          1.7544
 2832.0493         77.2384          4.5619          0.3459          0.3633          0.1702          0.2198          2.3370       1831.1697       3217.6267       7519.5933       4279.4434          1.7571
 2832.2017         73.8320          3.2579          0.3639          0.3352          0.2034          0.0873          2.3938       1908.3192       3261.8367       7808.1846       4568.1348          1.7093
 2832.3540         80.4292          2.3935          0.3747          0.3273          0.2205          0.0312          2.4076       1830.9535       3146.5098       7575.5366       4408.2036          1.7185
 2832.5063         83.5131          1.9783          0.3683          0.3277          0.2049          0.1038          2.3879       1893.3159       3242.6455       7743.1138       4521.0493          1.7127
 2832.6587         84.3996          2.4783          0.3604          0.3479          0.1709          0.2555          2.3287       1910.5538       3315.4062       7720.5869       4449.1069          1.7353
 2832.8113         68.6880          3.0179          0.3468          0.4574          0.1539          0.3058          2.3558       1826.1958       3241.6748       7636.7373       4302.1519          1.7751
 2832.9636         68.9969          3.2434          0.3430          0.5355          0.1514          0.2781          2.3701       1916.2025       3369.7334       7986.6050       4541.5918          1.7585
 2833.1160         78.3177          2.5485          0.3343          0.5661          0.1346          0.3197          2.3930       1808.7546       3248.1069       7772.7197       4328.3496          1.7958
 2833.2683         91.2184          1.8683          0.3403          0.5209          0.1047          0.4639          2.4149       1840.9170       3291.3257       7948.2227       4445.6304          1.7879
 2833.4209         81.5624          1.8674          0.3417          0.3051          0.0625          0.5870          2.4320       1872.4176       3291.8140       8005.6914       4553.7192          1.7581
 2833.5732         81.8861          2.0392          0.3547          0.2343          0.0736          0.5587          2.4109       1936.6312       3351.6543       8080.5039       4669.0244          1.7307
 2833.7256         80.5546          1.5959          0.3664          0.2071          0.0905          0.5597          2.3894       2004.9760       3429.4905       8194.4248       4790.6895          1.7105
 2833.8779         81.7308          1.7645          0.3702          0.1798          0.1019          0.5839          2.3773       1994.4323       3411.9443       8111.2153       4741.3638          1.7107
 2834.0305         79.0337          2.7796          0.3531          0.1803          0.0903          0.5692          2.3925       2022.8221       3446.5608       8245.8965       4839.6021          1.7038
 2834.1829         78.8765          2.9364          0.3544          0.2084          0.1122          0.4464          2.3752       1995.3361       3407.2173       8092.8228       4739.3223          1.7076
 2834.3352         81.5650          3.3951          0.3529          0.2173          0.1199          0.4385          2.3656       1974.9332       3382.8225       8002.4053       4671.9023          1.7129
 2834.4875         78.2256          3.4815          0.3547          0.2105          0.1585          0.3836          2.3268       2239.8625       3703.9299       8618.3047       5211.7124          1.6536
 2834.6399         87.1445          3.2827          0.3569          0.2208          0.2135          0.1236          2.2718       2146.7930       3565.0798       8099.1484       4877.0845          1.6607
 2834.7925         83.4775          5.0104          0.3471          0.2413          0.2300          0.0435          2.2596       2129.4165       3540.6064       8000.3540       4811.6294          1.6627
 2834.9448         79.4163          6.2869          0.3418          0.2448          0.2565          0.1227          2.2410       2122.8459       3540.2041       7933.5972       4757.2979          1.6677
 2835.0972         81.2204          6.7969          0.3216          0.2476          0.2635          0.0892          2.2420       2139.4231       3558.6536       7978.5015       4796.5869          1.6634
