~VERSION INFORMATION
 VERS.                          2.0   : CWLS LOG ASCII STANDARD - VERSION 2.0
 WRAP.                          NO    : ONE LINE PER DEPTH STEP
#
~Well Information Section
#MNEM     .UNIT     DATA                DESCRIPTION
#-----    -----     --------            --------------
 STRT     .M        154.9908            : START DEPTH
 STOP     .M        2907.9443           : END DEPTH
 STEP     .M        0.0000              : INCREMENT DEPTH
 NULL     .         -999.2500           : NULL VALUE
 COMP     .                             :
 WELL     .         Well-1P             : WELL NAME
 EKB      .M        40.0000             : KELLY BUSHING ELEVATION
 EGL      .M        33.0000             : GROUND LEVEL ELEVATION
 FLD      .                              :
 LOC      . X = 300000.7600 Y = 2000000.00: WELL LOCATION
 PROV     .                              :
 SRVC     .                              :
 PROV     .                              :
 DATE     .                              :
 UWI      .         O.1051878.20         : UNIQUE WELL ID
 API      .                              :
#
~Curve Information Section
#MNEM     .UNIT               Curve #DESCRIPTION
#-----    -----               ----   --------------
 DEPTH    .M                  : 1     Name = Domain Curve - Type = DEPTH
 GR       .gAPI               : 2     Name = Gamma Ray 1 - Type = Gamma Ray
 RT      .ohm-m              : 3     Name = Resistivity - Type = Resistivity
 NPHI     .ft3/ft3            : 4     Name = Neutron Porosity 1 - Type = Neutron Porosity
 SW       .Dec                : 5     Name = Water Saturation 1 - Type = Water Saturation
 PHIE     .Dec                : 6     Name = Porosity 1 - Type = Porosity
 VCL      .Dec                : 7     Name = Vcl - Type = Volumetric
 RHOBMOD  .g/cc               : 8     Name = Density - Type = Density
 DTSM     .m/s                : 9     Name = S-wave - Type = S-wave
 DT       .m/s                : 10    Name = P-wave - Type = P-wave
 PIMPMOD  .(m/s)*(g/cc)       : 11    Name = P-Impedance_trans - Type = P-Impedance
 SIMPMOD  .(m/s)*(g/cc)       : 12    Name = S-Impedance_trans - Type = S-Impedance
 VPVSMOD  .unitless           : 13    Name = VpVs_Ratio_trans - Type = VpVs_Ratio
~A (ASCII LOG DATA)
# ...
 2627.9856         72.3565          8.9692          0.3237          0.3157          0.2425          0.0893          2.2021       1814.4946       3199.7734       7046.2212       3995.6987          1.7635
 2628.1379         68.4934          8.9052          0.3210          0.3235          0.2305          0.1083          2.2183       1797.5409       3182.9102       7060.6499       3987.4851          1.7707
 2628.2903         69.4182          8.9788          0.3200          0.3091          0.2356          0.0936          2.2121       1890.9891       3294.0623       7286.7954       4183.0571          1.7420
 2628.4429         71.4359          9.3445          0.3208          0.2994          0.2241          0.1144          2.2259       2155.2256       3622.3660       8063.0239       4797.3164          1.6807
 2628.5952         68.5984          9.1524          0.3235          0.3270          0.1972          0.1699          2.2233       2128.3118       3614.6753       8036.5073       4731.8755          1.6984
 2628.7476         72.4665          8.9691          0.3263          0.3104          0.1997          0.1679          2.2184       1961.6619       3403.5034       7550.3320       4351.7505          1.7350
 2628.8999         71.5075          8.2220          0.3282          0.3061          0.2113          0.1482          2.2402       1942.7395       3363.6868       7535.3311       4352.1250          1.7314
 2629.0525         68.4871          7.7560          0.3276          0.3015          0.2263          0.1209          2.2210       1906.2457       3314.0315       7360.4639       4233.7715          1.7385
 2629.2048         69.1830          7.1517          0.3253          0.2990          0.2363          0.1014          2.2086       1882.8577       3282.1401       7248.9351       4158.4795          1.7432
 2629.3572         68.6494          6.6839          0.3245          0.2968          0.2364          0.1005          2.2083       1882.9066       3281.5972       7246.7515       4158.0229          1.7428
 2629.5095         67.6252          5.8224          0.3276          0.2991          0.2294          0.1154          2.2170       1898.6843       3303.4287       7323.7017       4209.3833          1.7399
 2629.6621         62.7809          4.9427          0.3346          0.2985          0.2275          0.1240          2.2181       1899.3746       3304.9526       7330.7158       4213.0029          1.7400
 2629.8145         66.8558          5.4178          0.3383          0.3011          0.2346          0.1141          2.2086       1879.6719       3279.7725       7243.7056       4151.4434          1.7449
 2629.9668         69.2190          5.8431          0.3334          0.3048          0.2396          0.1017          2.2033       1869.9092       3267.1975       7198.6162       4119.9707          1.7472
 2630.1191         68.9431          5.5180          0.3287          0.3100          0.2387          0.0999          2.2057       1874.9133       3274.5671       7222.7124       4135.4961          1.7465
 2630.2715         68.8727          5.4144          0.3375          0.3140          0.2380          0.1077          2.2054       1871.6848       3272.1472       7216.3936       4127.8135          1.7482
 2630.4241         65.4407          5.7280          0.3520          0.3128          0.2420          0.1112          2.2756       1875.9672       3250.0298       7395.7676       4268.9507          1.7325
 2630.5764         64.2201          6.4625          0.3531          0.3062          0.2445          0.1075          2.2717       1869.0150       3239.3674       7358.8706       4245.8413          1.7332
 2630.7288         70.5660          7.5397          0.3428          0.2999          0.2469          0.0960          2.2699       1868.5447       3236.2319       7345.9233       4241.4097          1.7320
 2630.8811         68.0910          8.5755          0.3358          0.2877          0.2526          0.0809          2.2629       1858.2599       3218.9951       7284.2646       4205.0566          1.7323
 2631.0337         66.3101          8.9787          0.3322          0.2804          0.2547          0.0745          2.2604       1735.9283       3064.7505       6927.5620       3923.8926          1.7655
 2631.1860         62.8521          9.0345          0.3276          0.2976          0.2445          0.0887          2.1976       1861.1274       3253.2146       7149.2642       4090.0134          1.7480
 2631.3384         67.4402          9.1528          0.3236          0.3156          0.2272          0.1161          2.2215       1852.5813       3250.2678       7220.4697       4115.5093          1.7545
 2631.4907         69.0318          9.4037          0.3309          0.3254          0.2182          0.1377          2.2324       1822.4115       3217.4587       7182.6548       4068.3513          1.7655
 2631.6433         70.4639          9.6089          0.3344          0.3282          0.2154          0.1453          2.2355       1827.2566       3224.9338       7209.3398       4084.8323          1.7649
 2631.7957         63.0083          9.4245          0.3316          0.3781          0.2173          0.1395          2.2371       1925.9028       3358.5244       7513.3545       4308.4370          1.7439
 2631.9480         65.2229          9.2928          0.3238          0.4251          0.2269          0.1170          2.2295       1905.9368       3342.3057       7451.6709       4249.2861          1.7536
 2632.1003         71.4266          9.2183          0.3176          0.4210          0.2412          0.0877          2.2118       1753.9237       3149.2354       6965.4790       3879.3286          1.7955
 2632.2527         71.7403          8.7824          0.3150          0.3975          0.2393          0.0887          2.2131       1879.8180       3300.2583       7303.8013       4160.2251          1.7556
 2632.4053         69.4588          7.9630          0.3198          0.4274          0.2025          0.1565          2.2242       1904.5923       3358.9873       7471.0596       4236.1943          1.7636
 2632.5576         69.2667          7.4913          0.3331          0.5193          0.1358          0.2422          2.2998       1882.9360       3373.1763       7757.6304       4330.3760          1.7914
 2632.7100         69.5477          6.8450          0.3460          0.4944          0.1378          0.2371          2.2960       1879.5217       3362.5500       7720.4150       4315.3818          1.7890
 2632.8623         64.9321          6.2258          0.3456          0.3744          0.1938          0.1780          2.2304       1874.0322       3310.9263       7384.6904       4179.8418          1.7667
 2633.0149         66.4446          5.7357          0.3372          0.3032          0.2544          0.0789          2.2615       1852.8687       3215.6621       7272.2192       4190.2622          1.7355
 2633.1672         67.3868          6.1148          0.3253          0.2855          0.2772          0.0307          2.2330       1802.2714       3143.2129       7018.7944       4024.4719          1.7440
 2633.3196         71.2411          6.2028          0.3161          0.2862          0.2734          0.0298          2.2394       1817.0483       3161.9409       7080.8501       4069.0979          1.7402
 2633.4719         67.8793          6.3759          0.3123          0.2880          0.2588          0.0518          2.2591       1737.0234       3065.8264       6926.0083       3924.1096          1.7650
 2633.6245         65.8504          6.6254          0.3092          0.2945          0.2318          0.0965          2.2168       1784.2391       3158.5862       7001.9536       3955.3013          1.7703
 2633.7769         69.7460          6.6497          0.3070          0.2990          0.2069          0.1394          2.2119       1955.4790       3390.3967       7499.2188       4325.3242          1.7338
 2633.9292         70.3766          6.9129          0.3092          0.3013          0.1981          0.1572          2.2227       1975.4415       3417.7720       7596.6821       4390.8140          1.7301
