~VERSION INFORMATION
 VERS.                          2.0   : CWLS LOG ASCII STANDARD - VERSION 2.0
 WRAP.                          NO    : ONE LINE PER DEPTH STEP
#
~Well Information Section
#MNEM     .UNIT     DATA                DESCRIPTION
#-----    -----     --------            --------------
 STRT     .M        154.9908            : START DEPTH
 STOP     .M        2907.9443           : END DEPTH
 STEP     .M        0.0000              : INCREMENT DEPTH
 NULL     .         -999.2500           : NULL VALUE
 COMP     .                             :
 WELL     .         Well-1P             : WELL NAME
 EKB      .M        40.0000             : KELLY BUSHING ELEVATION
 EGL      .M        33.0000             : GROUND LEVEL ELEVATION
 FLD      .                              :
 LOC      . X = 300000.7600 Y = 2000000.00: WELL LOCATION
 PROV     .                              :
 SRVC     .                              :
 PROV     .                              :
 DATE     .                              :
 UWI      .         O.1051878.20         : UNIQUE WELL ID
 API      .                              :
#
~Curve Information Section
#MNEM     .UNIT               Curve #DESCRIPTION
#-----    -----               ----   --------------
 DEPTH    .M                  : 1     Name = Domain Curve - Type = DEPTH
 GR       .gAPI               : 2     Name = Gamma Ray 1 - Type = Gamma Ray
 RT      .ohm-m              : 3     Name = Resistivity - Type = Resistivity
 NPHI     .ft3/ft3            : 4     Name = Neutron Porosity 1 - Type = Neutron Porosity
 SW       .Dec                : 5     Name = Water Saturation 1 - Type = Water Saturation
 PHIE     .Dec                : 6     Name = Porosity 1 - Type = Porosity
 VCL      .Dec                : 7     Name = Vcl - Type = Volumetric
 RHOBMOD  .g/cc               : 8     Name = Density - Type = Density
 DTSM     .m/s                : 9     Name = S-wave - Type = S-wave
 DT       .m/s                : 10    Name = P-wave - Type = P-wave
 PIMPMOD  .(m/s)*(g/cc)       : 11    Name = P-Impedance_trans - Type = P-Impedance
 SIMPMOD  .(m/s)*(g/cc)       : 12    Name = S-Impedance_trans - Type = S-Impedance
 VPVSMOD  .unitless           : 13    Name = VpVs_Ratio_trans - Type = VpVs_Ratio
~A (ASCII LOG DATA)
# ...
 2701.1377         70.2413         80.5922          0.2626          0.4770          0.1652          0.2568          2.3322       1647.2297       3050.5676       7114.5342       3841.6692          1.8519
 2701.2900         70.2846         70.4492          0.2605          0.4361          0.1607          0.2337          2.3331       1630.5165       3018.2065       7041.7778       3804.1582          1.8511
 2701.4424         70.7120         63.1756          0.2667          0.3620          0.1695          0.1950          2.3147       1620.3811       2984.0964       6907.2876       3750.6960          1.8416
 2701.5947         67.9635         50.5935          0.2568          0.3876          0.1565          0.2064          2.3339       1617.7075       2988.5288       6974.9272       3775.5676          1.8474
 2701.7473         67.4761         37.9504          0.2339          0.3771          0.1303          0.1922          2.3100       1673.9038       3076.7988       7107.4053       3866.7178          1.8381
 2701.8997         64.0497         25.8160          0.2182          0.3046          0.1462          0.1518          2.2875       1644.1448       3018.5061       6904.8325       3760.9810          1.8359
 2702.0520         63.7738         18.7166          0.2155          0.2258          0.1729          0.1131          2.2463       1572.4984       2906.0298       6527.8145       3532.3032          1.8480
 2702.2043         74.1154         15.8680          0.2193          0.1583          0.2155          0.0836          2.1776       1557.9119       2866.5728       6242.2485       3392.5088          1.8400
 2702.3567         81.1474          8.5801          0.2251          0.1203          0.2493          0.0653          2.1232       1643.9120       2960.4602       6285.6489       3490.3538          1.8009
 2702.5093         87.2190          3.9698          0.2315          0.1053          0.2699          0.0406          2.0935       1785.6305       3129.4529       6551.5093       3738.2173          1.7526
 2702.6616         97.6170          1.7936          0.2325          0.0882          0.2630          0.0436          2.1030       1809.5326       3155.8789       6636.8130       3805.4470          1.7440
 2702.8140         95.1371          1.5542          0.2300          0.0722          0.2621          0.0317          2.1059       1702.1603       3017.9404       6355.4810       3584.5793          1.7730
 2702.9663         93.6274          1.6258          0.2307          0.0567          0.2596          0.0208          2.1113       1785.3651       3116.9705       6580.8599       3769.4414          1.7458
 2703.1189         93.7938          1.6258          0.2345          0.0478          0.2546          0.0145          2.1428       1869.1000       3210.9333       6880.3882       4005.1077          1.7179
 2703.2712         98.0033          1.8220          0.2403          0.0492          0.2506          0.0149          2.1494       1764.4614       3081.6497       6623.6978       3792.5334          1.7465
 2703.4236         95.6692          1.6797          0.2431          0.0598          0.2488          0.0215          2.1516       1885.6003       3235.1990       6960.8535       4057.0574          1.7157
 2703.5759         90.6191          1.6024          0.2425          0.0809          0.2449          0.0349          2.1413       2044.9530       3444.7554       7376.2544       4378.8579          1.6845
 2703.7285         87.9531          1.6478          0.2413          0.1132          0.2350          0.0559          2.1483       1905.8101       3284.3640       7055.7988       4094.2517          1.7233
 2703.8809         90.0971          1.8767          0.2351          0.1466          0.2226          0.0773          2.1664       1936.4479       3332.8362       7220.2563       4195.1206          1.7211
 2704.0332         87.3086          2.2994          0.2319          0.1493          0.2237          0.0798          2.1642       1930.5082       3326.2075       7198.5786       4178.0059          1.7230
 2704.1855         84.3331          2.2927          0.2357          0.1258          0.2371          0.0660          2.1436       1890.4692       3268.8965       7007.2065       4052.4099          1.7291
 2704.3379         79.9303          2.6158          0.2465          0.0986          0.2524          0.0492          2.1200       1845.3185       3203.9839       6792.4453       3912.0750          1.7363
 2704.4905         80.9209          3.5421          0.2657          0.1501          0.2369          0.0854          2.1414       1876.9181       3259.2783       6979.4189       4019.2327          1.7365
 2704.6428         86.4823          4.5430          0.2895          0.2949          0.1929          0.1891          2.2016       1863.6910       3288.1917       7239.2832       4103.1025          1.7643
 2704.7952         71.3276          4.6524          0.3247          0.5028          0.2090          0.3580          2.2235       1758.4427       3213.5315       7145.2871       3909.8975          1.8275
 2704.9475         69.3035          5.5404          0.3566          0.6478          0.2773          0.5854          2.4095       1701.0453       3111.9001       7498.1230       4098.6685          1.8294
 2705.1001         71.8145         10.5739          0.3713          0.8310          0.2416          0.7316          2.4882       1616.3425       3066.3208       7629.6191       4021.7834          1.8971
 2705.2524         69.8703         19.9034          0.3739          0.9087          0.2335          0.8197          2.5103       1644.9098       3128.9485       7854.5991       4129.2168          1.9022
 2705.4048         67.2663         31.1397          0.3744          0.9201          0.2388          0.8774          2.5045       1635.2280       3124.6340       7825.6455       4095.4285          1.9108
 2705.5571         63.7818         31.8117          0.3731          0.9136          0.2381          0.8601          2.5046       1634.8573       3121.0828       7817.0640       4094.6636          1.9091
 2705.7097         61.3877         33.7540          0.3695          0.8864          0.2375          0.8059          2.5016       1627.2776       3100.2021       7755.4658       4070.7976          1.9051
 2705.8621         59.2522         44.6935          0.3650          0.8813          0.2400          0.8125          2.4974       1688.9795       3176.0681       7931.9126       4218.0576          1.8805
 2706.0144         64.0891         56.3076          0.3582          0.8954          0.2423          0.8542          2.4961       1687.7595       3181.6177       7941.6357       4212.8164          1.8851
 2706.1667         60.0801         54.9692          0.3460          0.8695          0.2423          0.8054          2.4925       1733.3755       3227.5815       8044.7471       4320.4385          1.8620
 2706.3191         58.6524         52.6500          0.3418          0.8333          0.2435          0.7468          2.4858       1861.9578       3373.1487       8384.9727       4628.4546          1.8116
 2706.4717         58.7300         52.5722          0.3388          0.7810          0.2489          0.6838          2.4708       1830.4659       3315.4031       8191.6978       4522.7153          1.8112
 2706.6240         61.2856         49.9239          0.3390          0.7256          0.2570          0.6271          2.4515       1737.0399       3180.4419       7796.8530       4258.3530          1.8310
 2706.7764         61.3713         47.0292          0.3361          0.6905          0.2616          0.5916          2.4394       1735.8386       3166.9626       7725.4888       4234.4048          1.8245
 2706.9287         59.9124         43.7297          0.3285          0.6902          0.2502          0.5720          2.4190       1631.1365       3047.1003       7370.9355       3945.7190          1.8681
 2707.0813         63.0927         36.0481          0.3236          0.6773          0.2414          0.5413          2.4266       1587.1276       2986.8635       7247.9229       3851.3237          1.8819
