~VERSION INFORMATION
 VERS.                          2.0   : CWLS LOG ASCII STANDARD - VERSION 2.0
 WRAP.                          NO    : ONE LINE PER DEPTH STEP
#
~Well Information Section
#MNEM     .UNIT     DATA                DESCRIPTION
#-----    -----     --------            --------------
 STRT     .M        154.9908            : START DEPTH
 STOP     .M        2907.9443           : END DEPTH
 STEP     .M        0.0000              : INCREMENT DEPTH
 NULL     .         -999.2500           : NULL VALUE
 COMP     .                             :
 WELL     .         Well-1P             : WELL NAME
 EKB      .M        40.0000             : KELLY BUSHING ELEVATION
 EGL      .M        33.0000             : GROUND LEVEL ELEVATION
 FLD      .                              :
 LOC      . X = 300000.7600 Y = 2000000.00: WELL LOCATION
 PROV     .                              :
 SRVC     .                              :
 PROV     .                              :
 DATE     .                              :
 UWI      .         O.1051878.20         : UNIQUE WELL ID
 API      .                              :
#
~Curve Information Section
#MNEM     .UNIT               Curve #DESCRIPTION
#-----    -----               ----   --------------
 DEPTH    .M                  : 1     Name = Domain Curve - Type = DEPTH
 GR       .gAPI               : 2     Name = Gamma Ray 1 - Type = Gamma Ray
 RT      .ohm-m              : 3     Name = Resistivity - Type = Resistivity
 NPHI     .ft3/ft3            : 4     Name = Neutron Porosity 1 - Type = Neutron Porosity
 SW       .Dec                : 5     Name = Water Saturation 1 - Type = Water Saturation
 PHIE     .Dec                : 6     Name = Porosity 1 - Type = Porosity
 VCL      .Dec                : 7     Name = Vcl - Type = Volumetric
 RHOBMOD  .g/cc               : 8     Name = Density - Type = Density
 DTSM     .m/s                : 9     Name = S-wave - Type = S-wave
 DT       .m/s                : 10    Name = P-wave - Type = P-wave
 PIMPMOD  .(m/s)*(g/cc)       : 11    Name = P-Impedance_trans - Type = P-Impedance
 SIMPMOD  .(m/s)*(g/cc)       : 12    Name = S-Impedance_trans - Type = S-Impedance
 VPVSMOD  .unitless           : 13    Name = VpVs_Ratio_trans - Type = VpVs_Ratio
~A (ASCII LOG DATA)
# ...
 2853.5376         91.3257          1.5298          0.3294          0.2207          0.1862          0.3762          2.3114       2241.5637       3707.6243       8569.8027       5181.1504          1.6540
 2853.6899         82.5797          1.6521          0.3328          0.2178          0.1999          0.3363          2.2965       2216.5271       3671.6880       8432.0312       5090.2544          1.6565
 2853.8423         78.8563          2.1500          0.3340          0.2170          0.2162          0.2845          2.2797       2189.2629       3632.3354       8280.6357       4990.8628          1.6592
 2853.9949         82.0763          2.6554          0.3308          0.2283          0.2278          0.2423          2.2696       2173.2102       3610.8425       8195.1680       4932.3179          1.6615
 2854.1472         77.0313          3.0981          0.3191          0.2571          0.2105          0.2647          2.2958       2060.4219       3480.6340       7990.8394       4730.3164          1.6893
 2854.2996         74.3858          3.4523          0.3221          0.2639          0.1869          0.3514          2.3181       1813.9403       3184.7656       7382.6050       4204.8950          1.7557
 2854.4519         74.0057          3.8549          0.3358          0.2643          0.1718          0.4185          2.3298       1826.3817       3206.7305       7471.0405       4255.1040          1.7558
 2854.6045         73.9487          3.8093          0.3414          0.2854          0.1775          0.4102          2.3235       1810.2032       3190.5098       7413.1494       4206.0073          1.7625
 2854.7568         77.7245          3.7690          0.3381          0.3220          0.1904          0.3638          2.3139       2147.3835       3613.1541       8360.4775       4968.8306          1.6826
 2854.9092         81.0151          3.7310          0.3294          0.3385          0.1755          0.4048          2.3316       1940.3217       3364.2771       7844.1484       4524.0537          1.7339
 2855.0615         76.8418          3.6328          0.3345          0.3628          0.1297          0.5265          2.3745       1994.7314       3449.8945       8191.7749       4736.4897          1.7295
 2855.2141         73.4122          3.4804          0.3307          0.4980          0.0751          0.6045          2.4317       1997.3643       3493.3472       8494.7725       4856.9907          1.7490
 2855.3665         73.7209          3.2896          0.3181          1.0000          0.0260          0.6543          2.3914       1842.0992       3473.1892       8305.7852       4405.1963          1.8855
 2855.5188         76.3746          3.0743          0.3051          1.0000          0.0244          0.7553          2.3969       1747.4871       3365.2981       8066.2827       4188.5518          1.9258
 2855.6711         72.9982          3.0182          0.3064          0.9832          0.0316          0.7241          2.3866       1844.4169       3478.4929       8301.7715       4401.8853          1.8860
 2855.8235         79.8627          3.2369          0.3001          0.9031          0.0379          0.7102          2.3954       1863.3724       3473.8198       8321.1885       4463.5225          1.8643
 2855.9761         81.4784          3.6204          0.2841          1.0000          0.0343          0.7175          2.4068       1872.1265       3508.2744       8443.7148       4505.8340          1.8740
 2856.1284         77.8996          3.8212          0.2695          1.0000          0.0339          0.6597          2.4172       1852.8784       3479.7432       8411.2354       4478.7778          1.8780
 2856.2808         78.7519          3.8104          0.2799          1.0000          0.0367          0.6810          2.4090       1830.3064       3453.2229       8318.8135       4409.2080          1.8867
 2856.4331         81.5157          3.6970          0.2971          1.0000          0.0168          0.7487          2.4040       1669.3186       3267.8335       7855.8721       4013.0420          1.9576
 2856.5857         80.1637          3.6833          0.3006          1.0000          0.0262          0.7400          2.3944       1741.6735       3356.5662       8036.9614       4170.2627          1.9272
 2856.7380         77.7258          3.6703          0.2987          0.7847          0.0479          0.7490          2.4130       1858.1703       3429.8130       8276.1387       4483.7651          1.8458
 2856.8904         80.2422          3.6383          0.2929          0.5262          0.0844          0.6343          2.3597       1862.5048       3362.9287       7935.5029       4394.9526          1.8056
 2857.0427         80.1219          3.6176          0.2870          0.3671          0.1332          0.4667          2.3043       1901.5870       3357.4583       7736.5913       4381.8271          1.7656
 2857.1953         80.8750          3.6192          0.2880          0.3418          0.1892          0.2596          2.2551       1890.7626       3317.7979       7481.9658       4263.8589          1.7547
 2857.3477         81.9740          3.6559          0.2929          0.3324          0.2171          0.1722          2.3048       1871.0747       3255.1533       7502.4775       4312.4531          1.7397
 2857.5000         79.3504          3.6221          0.2971          0.3243          0.2182          0.1904          2.2210       1885.8619       3300.0693       7329.4536       4188.4995          1.7499
 2857.6523         75.0581          3.4859          0.3026          0.3201          0.2143          0.2151          2.2217       1780.5250       3170.4788       7043.8525       3955.7925          1.7806
 2857.8047         74.9738          3.5076          0.3024          0.3221          0.2063          0.2406          2.2294       1839.9895       3247.3604       7239.6650       4102.0723          1.7649
 2857.9573         73.5797          3.4961          0.2980          0.3325          0.1993          0.2601          2.2376       1905.9668       3333.7871       7459.6821       4264.7915          1.7491
 2858.1096         76.2590          3.2181          0.2983          0.3445          0.2001          0.2586          2.2374       2225.7048       3733.4470       8353.2148       4979.7920          1.6774
 2858.2620         75.8984          2.9185          0.3030          0.3439          0.2038          0.2510          2.2328       1895.2615       3322.0974       7417.5791       4231.7397          1.7528
 2858.4143         74.5278          2.6513          0.3047          0.3305          0.2003          0.2578          2.3139       1925.6699       3330.4167       7706.2515       4455.8076          1.7295
 2858.5669         79.6977          2.1731          0.3125          0.3045          0.1964          0.2602          2.3180       1938.5735       3340.8008       7743.9766       4493.6133          1.7233
 2858.7192         81.3919          1.8373          0.3340          0.2835          0.2032          0.2710          2.3030       1786.0889       3146.8567       7247.2109       4113.3628          1.7619
 2858.8716         83.4937          1.6812          0.3432          0.2742          0.2044          0.2939          2.2954       1764.9136       3120.0510       7161.7646       4051.1824          1.7678
 2859.0239         84.2101          1.5486          0.3325          0.2758          0.2211          0.2263          2.2825       1751.1562       3096.8679       7068.6011       3997.0142          1.7685
 2859.1765         88.1188          1.4969          0.3139          0.2823          0.2288          0.1756          2.2813       2114.6489       3545.2322       8087.7383       4824.1489          1.6765
 2859.3289         92.7625          1.4900          0.3091          0.2832          0.2321          0.1604          2.2792       2199.1545       3648.9609       8316.7119       5012.3130          1.6593
 2859.4812         89.2931          1.5151          0.3093          0.2834          0.2290          0.1709          2.2822       2203.4277       3655.3606       8342.2646       5028.6631          1.6589
