~VERSION INFORMATION
 VERS.                          2.0   : CWLS LOG ASCII STANDARD - VERSION 2.0
 WRAP.                          NO    : ONE LINE PER DEPTH STEP
#
~Well Information Section
#MNEM     .UNIT     DATA                DESCRIPTION
#-----    -----     --------            --------------
 STRT     .M        154.9908            : START DEPTH
 STOP     .M        2907.9443           : END DEPTH
 STEP     .M        0.0000              : INCREMENT DEPTH
 NULL     .         -999.2500           : NULL VALUE
 COMP     .                             :
 WELL     .         Well-1P             : WELL NAME
 EKB      .M        40.0000             : KELLY BUSHING ELEVATION
 EGL      .M        33.0000             : GROUND LEVEL ELEVATION
 FLD      .                              :
 LOC      . X = 300000.7600 Y = 2000000.00: WELL LOCATION
 PROV     .                              :
 SRVC     .                              :
 PROV     .                              :
 DATE     .                              :
 UWI      .         O.1051878.20         : UNIQUE WELL ID
 API      .                              :
#
~Curve Information Section
#MNEM     .UNIT               Curve #DESCRIPTION
#-----    -----               ----   --------------
 DEPTH    .M                  : 1     Name = Domain Curve - Type = DEPTH
 GR       .gAPI               : 2     Name = Gamma Ray 1 - Type = Gamma Ray
 RT      .ohm-m              : 3     Name = Resistivity - Type = Resistivity
 NPHI     .ft3/ft3            : 4     Name = Neutron Porosity 1 - Type = Neutron Porosity
 SW       .Dec                : 5     Name = Water Saturation 1 - Type = Water Saturation
 PHIE     .Dec                : 6     Name = Porosity 1 - Type = Porosity
 VCL      .Dec                : 7     Name = Vcl - Type = Volumetric
 RHOBMOD  .g/cc               : 8     Name = Density - Type = Density
 DTSM     .m/s                : 9     Name = S-wave - Type = S-wave
 DT       .m/s                : 10    Name = P-wave - Type = P-wave
 PIMPMOD  .(m/s)*(g/cc)       : 11    Name = P-Impedance_trans - Type = P-Impedance
 SIMPMOD  .(m/s)*(g/cc)       : 12    Name = S-Impedance_trans - Type = S-Impedance
 VPVSMOD  .unitless           : 13    Name = VpVs_Ratio_trans - Type = VpVs_Ratio
~A (ASCII LOG DATA)
# ...
 2524.3535         95.7089          0.4726          0.3854          1.0000          0.0138          0.8063          2.4124       1782.6824       3414.3594       8236.8008       4300.5430          1.9153
 2524.5061         98.3089          0.4253          0.3886          1.0000          0.0185          0.7909          2.4080       1776.3422       3404.9407       8199.0967       4277.4321          1.9168
 2524.6584         87.1657          0.4867          0.3926          1.0000          0.0326          0.7582          2.3988       1748.9768       3364.9104       8071.7466       4195.4453          1.9239
 2524.8108         89.0018          0.7213          0.3969          1.0000          0.0457          0.7366          2.4342       1820.5295       3432.7971       8356.1152       4431.5332          1.8856
 2524.9631         86.4628          0.7980          0.3965          1.0000          0.1109          0.6026          2.4332       1803.8451       3369.6545       8199.0430       4389.1157          1.8680
 2525.1155         86.2698          0.8183          0.3855          1.0000          0.0819          0.6572          2.4693       1873.1968       3462.2014       8549.2139       4625.4849          1.8483
 2525.2681         83.9248          0.8639          0.3721          1.0000          0.0591          0.7104          2.4178       1898.3849       3526.4343       8526.2129       4589.9150          1.8576
 2525.4204         83.4270          0.9326          0.3654          1.0000          0.0493          0.7315          2.4294       1919.8368       3555.4521       8637.6152       4664.0513          1.8520
 2525.5728         86.6774          1.0032          0.3582          1.0000          0.0527          0.7269          2.4248       1910.3315       3543.0310       8591.1416       4632.1719          1.8547
 2525.7251         84.8184          1.0863          0.3446          1.0000          0.0596          0.7182          2.4153       1834.8761       3448.1360       8328.2822       4431.7759          1.8792
 2525.8777         84.4370          1.1508          0.3336          1.0000          0.0672          0.7092          2.4046       1759.5822       3353.3713       8063.5166       4231.0913          1.9058
 2526.0300         86.7763          1.2042          0.3309          1.0000          0.0918          0.6840          2.4471       1616.6228       3144.9214       7695.9370       3956.0376          1.9454
 2526.1824         83.6609          1.2246          0.3387          1.0000          0.1362          0.6448          2.4733       1593.9663       3078.5681       7614.2227       3942.3569          1.9314
 2526.3347         87.4231          1.2410          0.3508          1.0000          0.1360          0.6254          2.4778       1661.9132       3161.4578       7833.4595       4117.8882          1.9023
 2526.4873         85.9696          1.2268          0.3553          1.0000          0.0978          0.6391          2.3692       1804.4609       3401.3530       8058.4854       4275.1289          1.8850
 2526.6396         85.4682          1.2103          0.3472          1.0000          0.1101          0.4713          2.3260       2011.7985       3665.6338       8526.2637       4679.4434          1.8221
 2526.7920         91.7609          1.2118          0.3329          1.0000          0.1427          0.3260          2.3036       2048.8809       3697.9590       8518.6182       4719.8022          1.8049
 2526.9443         86.1051          1.2069          0.3296          1.0000          0.1660          0.3385          2.2848       1904.4921       3510.0405       8019.7407       4351.3838          1.8430
 2527.0967         81.6536          1.0281          0.3253          1.0000          0.1475          0.4983          2.3177       1720.1509       3281.9910       7606.6699       3986.7935          1.9080
 2527.2493         79.1426          0.7896          0.3132          1.0000          0.1362          0.5554          2.4016       1742.8455       3288.3384       7897.2729       4185.6177          1.8868
 2527.4016         76.8550          0.6696          0.3076          1.0000          0.1349          0.5348          2.4083       1763.0072       3311.8787       7975.9971       4245.8501          1.8785
 2527.5540         81.0524          0.4945          0.3208          1.0000          0.1379          0.5556          2.3988       1736.3778       3280.1934       7868.5273       4165.2231          1.8891
 2527.7063         79.9076          0.3978          0.3481          1.0000          0.1399          0.5761          2.3910       1657.9296       3184.2166       7613.4619       3964.1096          1.9206
 2527.8589         77.1732          0.4255          0.3683          1.0000          0.1027          0.6740          2.4313       1726.6000       3279.8821       7974.3770       4197.8823          1.8996
 2528.0112         78.3805          0.5741          0.3796          1.0000          0.0277          0.7680          2.4201       1764.5549       3379.9980       8179.9331       4270.3994          1.9155
 2528.1636         80.8915          0.5625          0.3774          1.0000          0.0141          0.8052          2.4192       1983.8057       3661.5447       8858.0088       4799.2227          1.8457
 2528.3159         83.9494          0.4955          0.3686          1.0000          0.0114          0.7378          2.4312       2188.8318       3913.5715       9514.6748       5321.4878          1.7880
 2528.4685         87.0607          0.7576          0.3517          1.0000          0.0334          0.6627          2.4111       2160.7336       3871.2004       9333.8506       5209.7446          1.7916
 2528.6208         83.4566          0.9426          0.3428          1.0000          0.0303          0.6204          2.4255       2257.3567       3988.1494       9673.2559       5475.2183          1.7667
 2528.7732         85.8155          1.1091          0.3332          1.0000          0.0001          0.6426          2.4706       2235.5667       3965.0964       9796.1670       5523.1909          1.7736
 2528.9255         91.7233          1.2678          0.3189          1.0000          0.0599          0.6314          2.4336       2052.3330       3711.4282       9032.1318       4994.5576          1.8084
 2529.0779         92.1555          1.2550          0.3101          1.0000          0.1503          0.5714          2.4660       1647.7633       3138.6265       7739.8530       4063.3845          1.9048
 2529.2305         91.8181          1.3297          0.3219          1.0000          0.1437          0.5590          2.4795       1737.4886       3249.5837       8057.3433       4308.1030          1.8703
 2529.3828         95.5206          1.4141          0.3350          1.0000          0.1310          0.5779          2.4053       1745.8457       3294.1912       7923.5176       4199.2827          1.8869
 2529.5352         96.9335          1.4195          0.3482          1.0000          0.1349          0.6162          2.4817       1672.9248       3174.5076       7878.1753       4151.6973          1.8976
 2529.6875         81.5810          1.5598          0.3487          1.0000          0.1509          0.5812          2.3718       1612.7577       3127.6814       7418.2344       3825.1387          1.9393
 2529.8401         82.5303          2.1134          0.3402          1.0000          0.1320          0.4362          2.2974       1955.0525       3590.7920       8249.4854       4491.5376          1.8367
 2529.9924         78.0197          1.8613          0.3159          1.0000          0.1179          0.2843          2.3467       2171.0659       3850.7913       9036.6514       5094.8403          1.7737
 2530.1448         93.8662          1.3741          0.2995          1.0000          0.1470          0.2862          2.3051       2061.7725       3710.5605       8553.2129       4752.5918          1.7997
 2530.2971         95.7979          1.2795          0.3114          1.0000          0.1133          0.3813          2.3401       2119.0776       3791.6384       8872.8135       4958.8535          1.7893
