~VERSION INFORMATION
 VERS.                          2.0   : CWLS LOG ASCII STANDARD - VERSION 2.0
 WRAP.                          NO    : ONE LINE PER DEPTH STEP
#
~Well Information Section
#MNEM     .UNIT     DATA                DESCRIPTION
#-----    -----     --------            --------------
 STRT     .M        154.9908            : START DEPTH
 STOP     .M        2907.9443           : END DEPTH
 STEP     .M        0.0000              : INCREMENT DEPTH
 NULL     .         -999.2500           : NULL VALUE
 COMP     .                             :
 WELL     .         Well-1P             : WELL NAME
 EKB      .M        40.0000             : KELLY BUSHING ELEVATION
 EGL      .M        33.0000             : GROUND LEVEL ELEVATION
 FLD      .                              :
 LOC      . X = 300000.7600 Y = 2000000.00: WELL LOCATION
 PROV     .                              :
 SRVC     .                              :
 PROV     .                              :
 DATE     .                              :
 UWI      .         O.1051878.20         : UNIQUE WELL ID
 API      .                              :
#
~Curve Information Section
#MNEM     .UNIT               Curve #DESCRIPTION
#-----    -----               ----   --------------
 DEPTH    .M                  : 1     Name = Domain Curve - Type = DEPTH
 GR       .gAPI               : 2     Name = Gamma Ray 1 - Type = Gamma Ray
 RT      .ohm-m              : 3     Name = Resistivity - Type = Resistivity
 NPHI     .ft3/ft3            : 4     Name = Neutron Porosity 1 - Type = Neutron Porosity
 SW       .Dec                : 5     Name = Water Saturation 1 - Type = Water Saturation
 PHIE     .Dec                : 6     Name = Porosity 1 - Type = Porosity
 VCL      .Dec                : 7     Name = Vcl - Type = Volumetric
 RHOBMOD  .g/cc               : 8     Name = Density - Type = Density
 DTSM     .m/s                : 9     Name = S-wave - Type = S-wave
 DT       .m/s                : 10    Name = P-wave - Type = P-wave
 PIMPMOD  .(m/s)*(g/cc)       : 11    Name = P-Impedance_trans - Type = P-Impedance
 SIMPMOD  .(m/s)*(g/cc)       : 12    Name = S-Impedance_trans - Type = S-Impedance
 VPVSMOD  .unitless           : 13    Name = VpVs_Ratio_trans - Type = VpVs_Ratio
~A (ASCII LOG DATA)
 2499.9695         84.4731          1.2422          0.3860          1.0000          0.0059          0.8470          2.4167       1873.2283       3530.5400       8532.2559       4527.0308          1.8847
 2500.1221         86.3101          1.2168          0.3834          1.0000          0.0036          0.8685          2.4158       1919.3719       3589.6736       8671.9336       4636.8188          1.8702
 2500.2744         84.7359          1.2587          0.3848          1.0000          0.0024          0.8843          2.4213       1914.1611       3582.0728       8673.2725       4634.7583          1.8714
 2500.4268         88.7858          1.2801          0.3853          1.0000          0.0016          0.8990          2.4349       1767.0876       3395.2610       8267.1211       4302.6816          1.9214
 2500.5791         92.1009          1.2283          0.3869          1.0000          0.0014          0.9031          2.4343       1764.7506       3392.6890       8258.8223       4295.9321          1.9225
 2500.7317         87.2015          1.2253          0.3888          1.0000          0.0035          0.8694          2.4382       1781.6798       3410.9514       8316.5820       4344.0918          1.9145
 2500.8840         84.3019          1.2764          0.3859          1.0000          0.0116          0.8149          2.4735       1746.8967       3350.0166       8286.2656       4320.9492          1.9177
 2501.0364         92.1742          1.2622          0.3772          1.0000          0.0112          0.8168          2.4738       1801.4604       3417.9465       8455.3164       4456.4526          1.8973
 2501.1887         89.1823          1.2819          0.3630          1.0000          0.0160          0.7987          2.4698       1796.7330       3410.3101       8422.7842       4437.5713          1.8981
 2501.3413         91.9276          1.2800          0.3512          1.0000          0.0304          0.7624          2.4539       1859.3718       3484.1938       8549.8633       4562.7129          1.8739
 2501.4937         87.8112          1.2738          0.3533          1.0000          0.0433          0.7402          2.5150       1901.9110       3507.2014       8820.6123       4783.3062          1.8440
 2501.6460         83.7738          1.2794          0.3526          1.0000          0.0353          0.7532          2.5254       1894.5055       3499.6216       8837.9443       4784.3838          1.8472
 2501.7983         83.7745          1.2734          0.3502          1.0000          0.0330          0.7575          2.4507       1762.8251       3363.7361       8243.5078       4320.1553          1.9082
 2501.9507         86.2303          1.2754          0.3540          1.0000          0.0617          0.7156          2.4899       1822.5256       3405.3232       8478.9150       4537.9067          1.8685
 2502.1033         90.3695          1.2886          0.3692          1.0000          0.0942          0.6453          2.4515       1835.3976       3413.4099       8367.9746       4499.4771          1.8598
 2502.2556         88.9030          1.2497          0.3790          1.0000          0.0789          0.6967          2.4657       1799.6455       3374.1519       8319.6455       4437.3857          1.8749
 2502.4080         94.0572          1.2143          0.3758          1.0000          0.0245          0.7752          2.4609       1897.5610       3533.0552       8694.4961       4669.7080          1.8619
 2502.5603         97.4413          1.2278          0.3718          1.0000          0.0025          0.8821          2.4370       1919.5908       3583.2524       8732.3867       4678.0430          1.8667
 2502.7129         87.9962          1.2240          0.3663          1.0000          0.0013          0.9067          2.4337       1906.2445       3568.6775       8685.0908       4639.2275          1.8721
 2502.8652         83.4096          1.2644          0.3604          1.0000          0.0023          0.8854          2.4366       1917.9358       3581.4719       8726.6143       4673.2422          1.8674
 2503.0176         89.9170          1.2893          0.3586          1.0000          0.0017          0.8981          2.4720       1921.6031       3574.1445       8835.2852       4750.2026          1.8600
 2503.1699         89.4302          1.2635          0.3614          1.0000          0.0007          0.9291          2.4669       1874.7654       3518.4578       8679.6836       4624.8589          1.8767
 2503.3225         85.7980          1.2882          0.3635          1.0000          0.0004          0.9413          2.4646       1750.9651       3365.6968       8295.0967       4315.4287          1.9222
 2503.4749         86.5746          1.2524          0.3656          1.0000          0.0015          0.9027          2.4713       1865.8627       3505.3064       8662.6631       4611.1064          1.8787
 2503.6272         86.1997          1.2840          0.3641          1.0000          0.0015          0.9015          2.4715       1776.0466       3393.6797       8387.4795       4389.4990          1.9108
 2503.7795         91.7478          1.2768          0.3706          1.0000          0.0026          0.8816          2.4740       1786.6335       3405.2012       8424.4678       4420.1313          1.9059
 2503.9319         88.7547          1.2937          0.3779          1.0000          0.0037          0.8672          2.4753       1792.9557       3411.8599       8445.3770       4438.1035          1.9029
 2504.0845         85.1529          1.3395          0.3831          1.0000          0.0039          0.8647          2.4755       1793.9266       3412.8545       8448.5215       4440.8657          1.9024
 2504.2368         86.7071          1.3572          0.3799          1.0000          0.0011          0.9134          2.4696       1859.5154       3498.2795       8639.3506       4592.2593          1.8813
 2504.3892         82.1454          1.3872          0.3723          1.0000          0.0008          0.9246          2.4677       1852.5356       3490.4973       8613.5000       4571.5024          1.8842
 2504.5415         78.3698          1.3679          0.3629          1.0000          0.0064          0.8436          2.4760       1800.1370       3418.7485       8464.8213       4457.1392          1.8992
 2504.6941         84.8296          1.3305          0.3570          1.0000          0.0214          0.7829          2.4644       1733.6870       3330.4006       8207.4395       4272.4985          1.9210
 2504.8464         83.0500          1.3384          0.3639          1.0000          0.0211          0.7835          2.4276       1778.0039       3398.4011       8249.9580       4316.2822          1.9114
 2504.9988         86.6422          1.3147          0.3796          1.0000          0.0179          0.7927          2.4310       1927.1624       3584.5708       8714.0918       4684.9316          1.8600
 2505.1511         86.9521          1.3330          0.3896          1.0000          0.0324          0.7586          2.4514       1907.8152       3543.9031       8687.5244       4676.8184          1.8576
 2505.3037         87.2621          1.3348          0.3890          1.0000          0.0387          0.7474          2.4434       1892.0607       3522.9917       8608.0771       4623.0610          1.8620
 2505.4561         87.5720          1.3366          0.3772          1.0000          0.0325          0.7584          2.4513       1879.5306       3508.7493       8600.9971       4607.2935          1.8668
 2505.6084         87.5751          1.3385          0.3630          1.0000          0.0372          0.7501          2.4454       1896.1046       3528.3401       8628.2031       4636.7344          1.8608
 2505.7607         84.8762          1.3307          0.3540          1.0000          0.0427          0.7411          2.4382       1881.6740       3509.3005       8556.3770       4587.8975          1.8650
 2505.9131         84.1120          1.3413          0.3557          1.0000          0.0311          0.7611          2.4530       1910.8427       3547.9492       8703.1201       4687.2974          1.8567
