~VERSION INFORMATION
 VERS.                          2.0   : CWLS LOG ASCII STANDARD - VERSION 2.0
 WRAP.                          NO    : ONE LINE PER DEPTH STEP
#
~Well Information Section
#MNEM     .UNIT     DATA                DESCRIPTION
#-----    -----     --------            --------------
 STRT     .M        154.9908            : START DEPTH
 STOP     .M        2907.9443           : END DEPTH
 STEP     .M        0.0000              : INCREMENT DEPTH
 NULL     .         -999.2500           : NULL VALUE
 COMP     .                             :
 WELL     .         Well-1P             : WELL NAME
 EKB      .M        40.0000             : KELLY BUSHING ELEVATION
 EGL      .M        33.0000             : GROUND LEVEL ELEVATION
 FLD      .                              :
 LOC      . X = 300000.7600 Y = 2000000.00: WELL LOCATION
 PROV     .                              :
 SRVC     .                              :
 PROV     .                              :
 DATE     .                              :
 UWI      .         O.1051878.20         : UNIQUE WELL ID
 API      .                              :
#
~Curve Information Section
#MNEM     .UNIT               Curve #DESCRIPTION
#-----    -----               ----   --------------
 DEPTH    .M                  : 1     Name = Domain Curve - Type = DEPTH
 GR       .gAPI               : 2     Name = Gamma Ray 1 - Type = Gamma Ray
 RT      .ohm-m              : 3     Name = Resistivity - Type = Resistivity
 NPHI     .ft3/ft3            : 4     Name = Neutron Porosity 1 - Type = Neutron Porosity
 SW       .Dec                : 5     Name = Water Saturation 1 - Type = Water Saturation
 PHIE     .Dec                : 6     Name = Porosity 1 - Type = Porosity
 VCL      .Dec                : 7     Name = Vcl - Type = Volumetric
 RHOBMOD  .g/cc               : 8     Name = Density - Type = Density
 DTSM     .m/s                : 9     Name = S-wave - Type = S-wave
 DT       .m/s                : 10    Name = P-wave - Type = P-wave
 PIMPMOD  .(m/s)*(g/cc)       : 11    Name = P-Impedance_trans - Type = P-Impedance
 SIMPMOD  .(m/s)*(g/cc)       : 12    Name = S-Impedance_trans - Type = S-Impedance
 VPVSMOD  .unitless           : 13    Name = VpVs_Ratio_trans - Type = VpVs_Ratio
~A (ASCII LOG DATA)
# ...
 2652.3696         86.9022          1.5638          0.3588          1.0000          0.0001          0.9556          2.4621       1832.2675       3467.7822       8538.0264       4511.2256          1.8926
 2652.5220         79.2946          1.6747          0.3522          1.0000          0.0001          0.9634          2.4604       1826.5735       3461.3132       8516.2158       4494.1016          1.8950
 2652.6743         92.2929          1.5794          0.3494          1.0000          0.0001          0.9534          2.4625       1886.9861       3535.5557       8706.3066       4646.7036          1.8737
 2652.8269         97.1551          1.4765          0.3506          1.0000          0.0001          0.9344          2.5443       1922.6835       3551.3064       9035.5889       4891.8838          1.8471
 2652.9792         94.8048          1.4981          0.3563          1.0000          0.0001          0.9058          2.5505       1800.0261       3396.7849       8663.5000       4590.9663          1.8871
 2653.1316        106.4372          1.5128          0.3560          1.0000          0.0003          0.9091          2.5495       1796.8604       3393.0950       8650.6953       4581.0952          1.8883
 2653.2839        106.8938          1.5135          0.3570          1.0000          0.0001          0.9255          2.4686       1763.8014       3380.4351       8344.9424       4354.1201          1.9166
 2653.4363        101.8433          1.5608          0.3696          1.0000          0.0001          0.9342          2.4667       1757.4175       3373.1824       8320.6289       4335.0220          1.9194
 2653.5889        103.4231          1.5808          0.3809          1.0000          0.0001          0.9515          2.4629       1860.4043       3502.4045       8626.0723       4581.9897          1.8826
 2653.7412        102.9930          1.5854          0.3829          1.0000          0.0001          0.9469          2.4639       1891.7136       3540.9265       8724.4893       4660.9932          1.8718
 2653.8936        105.2972          1.5517          0.3855          1.0000          0.0001          0.9495          2.4634       1889.8303       3538.7869       8717.4473       4655.4077          1.8725
 2654.0459        105.4278          1.5493          0.3890          1.0000          0.0001          0.9589          2.4614       1882.9744       3530.9978       8691.1982       4634.7529          1.8752
 2654.1985        108.3805          1.5583          0.3823          1.0000          0.0001          0.9657          2.5375       1899.8213       3525.3328       8945.5312       4820.7964          1.8556
 2654.3508        106.8465          1.5492          0.3609          1.0000          0.0001          0.9513          2.5406       1882.4183       3502.6099       8898.7305       4782.4722          1.8607
 2654.5032        105.6169          1.6118          0.3504          1.0000          0.0001          0.8813          2.5558       1817.9998       3417.2046       8733.6914       4646.4438          1.8797
 2654.6555        107.0822          1.6172          0.3567          1.0000          0.0001          0.8601          2.5604       1924.0433       3547.2429       9082.3604       4926.3208          1.8436
 2654.8081         98.3669          1.6172          0.3735          1.0000          0.0015          0.9025          2.5490       1797.3237       3393.0669       8648.9277       4581.3784          1.8878
 2654.9604         96.2535          1.6056          0.3838          1.0000          0.0001          0.9260          2.4685       1763.4166       3379.9980       8343.5244       4352.9937          1.9167
 2655.1128         93.3722          1.5467          0.3883          1.0000          0.0001          0.9370          2.4661       1845.9314       3483.3057       8590.1797       4552.2515          1.8870
 2655.2651        103.0743          1.5868          0.3825          1.0000          0.0001          0.9440          2.4646       1865.9147       3508.6648       8647.4551       4598.7334          1.8804
 2655.4175        116.7826          1.5703          0.3797          1.0000          0.0001          0.9346          2.4666       1872.8239       3516.5144       8673.8340       4619.5073          1.8777
 2655.5701        116.5722          1.5442          0.3853          1.0000          0.0001          0.9198          2.4698       1911.5708       3563.4861       8801.0977       4721.1978          1.8642
 2655.7224        116.2614          1.5644          0.3914          1.0000          0.0001          0.9184          2.4701       1859.4983       3498.7188       8642.1846       4593.1465          1.8815
 2655.8748        109.3213          1.5475          0.3910          1.0000          0.0001          0.9152          2.4708       1914.9731       3567.3513       8814.2109       4731.5156          1.8629
 2656.0271        101.4085          1.5817          0.3861          1.0000          0.0001          0.9142          2.4341       1877.3052       3533.4175       8600.6914       4569.5483          1.8822
 2656.1797        104.2965          1.5371          0.3832          1.0000          0.0001          0.9017          2.4214       1882.1625       3543.8574       8581.0967       4557.4683          1.8829
 2656.3320        101.8058          1.5201          0.3827          1.0000          0.0001          0.9021          2.4213       1909.7775       3578.1821       8663.8525       4624.1440          1.8736
 2656.4844        103.6555          1.4883          0.3795          1.0000          0.0001          0.8864          2.4177       1919.2941       3591.2310       8682.5195       4640.2773          1.8711
 2656.6367        100.4966          1.5040          0.3711          1.0000          0.0001          0.8570          2.4241       1887.7749       3549.8140       8605.1035       4576.1548          1.8804
 2656.7893         92.0098          1.6110          0.3659          1.0000          0.0001          0.8425          2.4272       1923.5117       3593.0708       8721.1016       4668.7476          1.8680
 2656.9417         88.0671          1.7348          0.3703          1.0000          0.0001          0.8544          2.4246       1914.8441       3583.2236       8687.8838       4642.7310          1.8713
 2657.0940         91.8770          1.7131          0.3807          1.0000          0.0002          0.8748          2.4201       1784.0392       3422.3721       8282.4824       4317.5532          1.9183
 2657.2463        101.1320          1.6010          0.3958          1.0000          0.0001          0.8956          2.4157       1768.9514       3405.2566       8226.0781       4273.2559          1.9250
 2657.3987        100.4524          1.5432          0.4013          1.0000          0.0001          0.9018          2.4214       1882.1077       3543.7949       8580.9453       4557.3354          1.8829
 2657.5513        100.0807          1.6164          0.3992          1.0000          0.0001          0.8997          2.4218       1911.5453       3580.1904       8670.5049       4629.3804          1.8729
 2657.7036        102.9862          1.6523          0.3909          1.0000          0.0001          0.8778          2.4195       1872.5032       3532.4639       8546.7969       4530.5215          1.8865
 2657.8560        103.4288          1.7048          0.3838          1.0000          0.0001          0.8770          2.4197       1926.1888       3599.0640       8708.6543       4660.7988          1.8685
 2658.0083        101.0770          1.6719          0.3679          1.0000          0.0001          0.9261          2.4315       2153.5957       3877.4153       9427.9355       5236.4678          1.8004
 2658.1609        103.9570          1.6925          0.3528          1.0000          0.0001          0.9435          2.4647       1894.2535       3543.8120       8734.4336       4668.7666          1.8708
 2658.3132         94.4618          1.6850          0.3483          1.0000          0.0001          0.9449          2.4644       1865.2919       3507.9573       8645.0098       4596.8252          1.8806
