~VERSION INFORMATION
 VERS.                          2.0   : CWLS LOG ASCII STANDARD - VERSION 2.0
 WRAP.                          NO    : ONE LINE PER DEPTH STEP
#
~Well Information Section
#MNEM     .UNIT     DATA                DESCRIPTION
#-----    -----     --------            --------------
 STRT     .M        154.9908            : START DEPTH
 STOP     .M        2907.9443           : END DEPTH
 STEP     .M        0.0000              : INCREMENT DEPTH
 NULL     .         -999.2500           : NULL VALUE
 COMP     .                             :
 WELL     .         Well-1P             : WELL NAME
 EKB      .M        40.0000             : KELLY BUSHING ELEVATION
 EGL      .M        33.0000             : GROUND LEVEL ELEVATION
 FLD      .                              :
 LOC      . X = 300000.7600 Y = 2000000.00: WELL LOCATION
 PROV     .                              :
 SRVC     .                              :
 PROV     .                              :
 DATE     .                              :
 UWI      .         O.1051878.20         : UNIQUE WELL ID
 API      .                              :
#
~Curve Information Section
#MNEM     .UNIT               Curve #DESCRIPTION
#-----    -----               ----   --------------
 DEPTH    .M                  : 1     Name = Domain Curve - Type = DEPTH
 GR       .gAPI               : 2     Name = Gamma Ray 1 - Type = Gamma Ray
 RT      .ohm-m              : 3     Name = Resistivity - Type = Resistivity
 NPHI     .ft3/ft3            : 4     Name = Neutron Porosity 1 - Type = Neutron Porosity
 SW       .Dec                : 5     Name = Water Saturation 1 - Type = Water Saturation
 PHIE     .Dec                : 6     Name = Porosity 1 - Type = Porosity
 VCL      .Dec                : 7     Name = Vcl - Type = Volumetric
 RHOBMOD  .g/cc               : 8     Name = Density - Type = Density
 DTSM     .m/s                : 9     Name = S-wave - Type = S-wave
 DT       .m/s                : 10    Name = P-wave - Type = P-wave
 PIMPMOD  .(m/s)*(g/cc)       : 11    Name = P-Impedance_trans - Type = P-Impedance
 SIMPMOD  .(m/s)*(g/cc)       : 12    Name = S-Impedance_trans - Type = S-Impedance
 VPVSMOD  .unitless           : 13    Name = VpVs_Ratio_trans - Type = VpVs_Ratio
~A (ASCII LOG DATA)
# ...
 2725.5215         68.7961          3.2189          0.3187          0.6464          0.1790          0.2219          2.2418       1484.1498       2902.9636       6507.8643       3327.1670          1.9560
 2725.6741         66.4126          2.1325          0.3100          0.5025          0.2492          0.0955          2.1431       1419.2909       2773.5435       5943.9810       3041.6824          1.9542
 2725.8264         65.9779          1.4312          0.3050          0.4862          0.2914          0.0241          2.1471       1472.8646       2806.7896       6026.4580       3162.3877          1.9057
 2725.9788         66.5848          1.2449          0.3102          0.5689          0.3030          0.0108          2.1366       1641.7045       3033.9268       6482.2881       3507.6658          1.8480
 2726.1311         71.8972          1.3632          0.3277          0.7034          0.2695          0.0763          2.1346       1655.8774       3108.9785       6636.4253       3534.6357          1.8775
 2726.2837         71.2334          1.8056          0.3413          0.8664          0.2213          0.2108          2.1993       1616.4619       3115.4451       6851.7983       3555.0847          1.9273
 2726.4360         69.7261          1.4651          0.3362          0.8558          0.2262          0.3402          2.2265       1631.4506       3136.1743       6982.6924       3632.4248          1.9223
 2726.5884         67.5892          1.8903          0.3219          0.8375          0.2133          0.3853          2.2467       1566.9950       3056.9675       6868.0889       3520.5676          1.9508
 2726.7407         69.1693          3.1749          0.3198          0.8971          0.2072          0.3454          2.2329       1561.1293       3067.9097       6850.3350       3485.8455          1.9652
 2726.8933         68.8562          3.8142          0.3250          0.7539          0.2074          0.2742          2.2160       1534.4117       2994.1538       6635.0449       3400.2566          1.9513
 2727.0457         71.9333          5.1147          0.3137          0.5699          0.1877          0.2023          2.2263       1572.6549       2992.7275       6662.7095       3501.2017          1.9030
 2727.1980         64.3416          6.1082          0.2990          0.4247          0.2249          0.1256          2.1713       1633.0709       3024.9229       6568.0146       3545.8867          1.8523
 2727.3503         63.8036          5.2336          0.2953          0.3917          0.2619          0.0603          2.1292       1599.6833       2965.4121       6313.9556       3406.0457          1.8537
 2727.5027         66.3145          4.5894          0.3041          0.3769          0.2864          0.0273          2.1471       1747.3505       3122.6052       6704.5454       3751.7361          1.7871
 2727.6553         69.8023          4.1843          0.3027          0.3854          0.2853          0.0283          2.1494       1750.8344       3129.0776       6725.6396       3763.2434          1.7872
 2727.8076         71.0078          4.6206          0.2979          0.4898          0.2834          0.0312          2.1221       1690.8907       3092.4124       6562.4087       3588.2395          1.8289
 2727.9600         67.0063          4.7421          0.2939          0.4958          0.2778          0.0371          2.1305       1504.3369       2863.0583       6099.7461       3204.9900          1.9032
 2728.1123         62.9345          5.1502          0.3074          0.6762          0.2616          0.0736          2.1394       1530.8019       2950.1169       6311.4800       3274.9976          1.9272
 2728.2649         65.6525          5.5374          0.3323          0.9220          0.2108          0.1761          2.2183       1502.0378       2983.8730       6619.1260       3331.9707          1.9865
 2728.4172         67.8287          5.4633          0.3521          0.9513          0.2443          0.3302          2.2451       1617.7820       3126.7317       7019.8252       3632.0823          1.9327
 2728.5696         71.6617          5.0579          0.3619          0.9056          0.2664          0.4457          2.3009       1681.9418       3178.6855       7313.8374       3869.9797          1.8899
 2728.7219         68.0913          4.1736          0.3608          0.8402          0.2666          0.4633          2.2977       1787.8507       3296.5815       7574.5552       4107.9443          1.8439
 2728.8745         74.2734          2.1138          0.3480          0.9552          0.2463          0.4064          2.2498       1641.6511       3164.6504       7119.8306       3693.3867          1.9277
 2729.0269         81.3031          1.5955          0.3270          0.7942          0.2167          0.3562          2.2365       1691.1057       3197.8899       7152.0811       3782.1580          1.8910
 2729.1792         80.9658          1.4847          0.3047          0.5605          0.1876          0.3309          2.2344       2010.3402       3546.4016       7924.0801       4491.9043          1.7641
 2729.3315         83.6939          1.5149          0.2953          0.4766          0.1743          0.2680          2.2421       2028.0242       3543.3564       7944.5596       4547.0332          1.7472
 2729.4839         86.8497          1.5039          0.2880          0.4482          0.1533          0.2435          2.2659       2020.2871       3525.8335       7989.1855       4577.7686          1.7452
 2729.6365         84.7826          1.4125          0.2883          0.4426          0.1667          0.2198          2.2484       2040.7717       3547.0859       7975.2681       4588.4712          1.7381
 2729.7888         82.7731          1.3168          0.2903          0.4718          0.1731          0.2095          2.2420       1970.0366       3464.8330       7768.1558       4416.8223          1.7588
 2729.9412         86.1752          1.3988          0.3049          0.5560          0.1826          0.2044          2.2333       1889.0106       3382.8550       7554.9297       4218.7275          1.7908
 2730.0935         87.3856          1.3801          0.3224          0.6565          0.1900          0.2048          2.2279       1760.7875       3246.6851       7233.2896       3922.8584          1.8439
 2730.2461         84.4516          1.3827          0.3255          0.6032          0.1876          0.2116          2.2268       1765.5914       3240.8455       7216.7144       3931.6189          1.8356
 2730.3984         83.5198          1.4721          0.3141          0.5116          0.1810          0.2147          2.2307       1788.8684       3249.0078       7247.5620       3990.4287          1.8162
 2730.5508         82.3870          1.6568          0.3013          0.5347          0.1704          0.2236          2.2478       1921.0646       3420.0598       7687.6108       4318.1689          1.7803
 2730.7031         87.0019          2.0587          0.2905          0.6035          0.1559          0.2416          2.2726       1806.9844       3297.0427       7492.8589       4106.5527          1.8246
 2730.8557         90.0163          2.2578          0.2903          0.5547          0.1658          0.2736          2.2576       1992.0106       3517.8425       7941.8813       4497.1631          1.7660
 2731.0081         92.6487          3.0205          0.3031          0.5670          0.1840          0.3037          2.2370       1955.5703       3477.4358       7779.0239       4374.6108          1.7782
 2731.1604         87.0221          4.7264          0.3180          0.7487          0.2035          0.3344          2.2261       1865.0753       3409.6235       7590.1631       4151.8442          1.8281
 2731.3127         82.4592          7.3652          0.3220          0.9017          0.2111          0.3698          2.2368       1675.9429       3211.2576       7182.9409       3748.7490          1.9161
 2731.4651         78.4173          8.4001          0.3111          0.9415          0.2044          0.4428          2.2551       1498.2483       3007.4739       6782.1543       3378.6997          2.0073
