~VERSION INFORMATION
 VERS.                          2.0   : CWLS LOG ASCII STANDARD - VERSION 2.0
 WRAP.                          NO    : ONE LINE PER DEPTH STEP
#
~Well Information Section
#MNEM     .UNIT     DATA                DESCRIPTION
#-----    -----     --------            --------------
 STRT     .M        154.9908            : START DEPTH
 STOP     .M        2907.9443           : END DEPTH
 STEP     .M        0.0000              : INCREMENT DEPTH
 NULL     .         -999.2500           : NULL VALUE
 COMP     .                             :
 WELL     .         Well-1P             : WELL NAME
 EKB      .M        40.0000             : KELLY BUSHING ELEVATION
 EGL      .M        33.0000             : GROUND LEVEL ELEVATION
 FLD      .                              :
 LOC      . X = 300000.7600 Y = 2000000.00: WELL LOCATION
 PROV     .                              :
 SRVC     .                              :
 PROV     .                              :
 DATE     .                              :
 UWI      .         O.1051878.20         : UNIQUE WELL ID
 API      .                              :
#
~Curve Information Section
#MNEM     .UNIT               Curve #DESCRIPTION
#-----    -----               ----   --------------
 DEPTH    .M                  : 1     Name = Domain Curve - Type = DEPTH
 GR       .gAPI               : 2     Name = Gamma Ray 1 - Type = Gamma Ray
 RT      .ohm-m              : 3     Name = Resistivity - Type = Resistivity
 NPHI     .ft3/ft3            : 4     Name = Neutron Porosity 1 - Type = Neutron Porosity
 SW       .Dec                : 5     Name = Water Saturation 1 - Type = Water Saturation
 PHIE     .Dec                : 6     Name = Porosity 1 - Type = Porosity
 VCL      .Dec                : 7     Name = Vcl - Type = Volumetric
 RHOBMOD  .g/cc               : 8     Name = Density - Type = Density
 DTSM     .m/s                : 9     Name = S-wave - Type = S-wave
 DT       .m/s                : 10    Name = P-wave - Type = P-wave
 PIMPMOD  .(m/s)*(g/cc)       : 11    Name = P-Impedance_trans - Type = P-Impedance
 SIMPMOD  .(m/s)*(g/cc)       : 12    Name = S-Impedance_trans - Type = S-Impedance
 VPVSMOD  .unitless           : 13    Name = VpVs_Ratio_trans - Type = VpVs_Ratio
~A (ASCII LOG DATA)
# ...
 2774.2896         91.2364          1.5394          0.3167          0.3087          0.2233          0.1352          2.1864       1843.0162       3251.4656       7109.0039       4029.5706          1.7642
 2774.4419         79.2699          1.9730          0.3071          0.3296          0.2330          0.1099          2.1773       1878.2983       3297.4844       7179.6128       4089.6189          1.7556
 2774.5945         83.0615          1.8429          0.3050          0.3746          0.2493          0.0804          2.1598       1784.2594       3187.7422       6884.8857       3853.6436          1.7866
 2774.7468         86.7126          1.6171          0.2981          0.3948          0.2394          0.0921          2.1597       1760.5981       3170.1348       6846.5396       3802.3638          1.8006
 2774.8992         83.8744          1.7284          0.2955          0.6432          0.0001          0.4656          2.4186       1944.1694       3528.8015       8534.7598       4702.1685          1.8151
 2775.0515         85.3257          1.9282          0.2989          0.8126          0.0001          0.6621          2.3877       1798.9365       3403.3948       8126.2861       4295.3208          1.8919
 2775.2041         84.4718          1.9224          0.3210          0.9612          0.0001          0.8569          2.3786       1661.5302       3274.7209       7789.2510       3952.1155          1.9709
 2775.3564         78.3528          2.2588          0.3408          0.8891          0.0001          0.9280          2.4010       1622.1030       3199.3943       7681.7456       3894.6694          1.9724
 2775.5088         81.8096          3.1475          0.3495          0.8665          0.0001          0.8700          2.3874       1694.9822       3288.7158       7851.4800       4046.6003          1.9403
 2775.6611         77.8841          5.3597          0.3326          0.6808          0.0001          0.7609          2.3571       1727.6482       3291.5884       7758.6030       4072.2395          1.9052
 2775.8137         81.9160          9.7330          0.3308          0.7364          0.0001          0.7118          2.3717       1763.1681       3344.9517       7933.2222       4181.7061          1.8971
 2775.9661         82.6469         15.0731          0.3387          0.9038          0.0001          0.7181          2.3819       1757.2063       3377.3054       8044.4038       4185.4897          1.9220
 2776.1184         79.9508         18.8036          0.3591          0.8439          0.0001          0.7234          2.3766       1753.8282       3359.4553       7984.0815       4168.1484          1.9155
 2776.2708         77.8996         23.6460          0.3539          0.8803          0.0001          0.7345          2.3767       1745.3560       3358.3423       7981.7720       4148.1875          1.9242
 2776.4231         71.3258         29.3928          0.3569          1.0000          0.0001          0.7972          2.3714       1698.5320       3333.1272       7904.1782       4027.8989          1.9624
 2776.5757         69.1345         45.0291          0.3588          1.0000          0.0001          0.8686          2.3969       1657.7339       3273.6721       7846.6646       3973.4224          1.9748
 2776.7280         70.5355         48.1922          0.3665          1.0000          0.0001          0.9114          2.4123       1633.3568       3238.1030       7811.2764       3940.1467          1.9825
 2776.8804         70.2831         51.2724          0.3638          1.0000          0.0001          0.8952          2.4158       1645.2067       3251.5657       7855.1328       3974.4905          1.9764
 2777.0327         72.4221         56.5493          0.3549          1.0000          0.0001          0.8296          2.4230       1691.3018       3306.1709       8010.8525       4098.0244          1.9548
 2777.1853         75.3722         58.3048          0.3536          1.0000          0.0001          0.7909          2.4138       1714.6307       3338.3123       8058.0181       4138.7759          1.9470
 2777.3376         72.7582         60.7041          0.3593          0.9249          0.0001          0.7901          2.3906       1710.7289       3322.1223       7941.8657       4089.6685          1.9419
 2777.4900         72.0595         65.9464          0.3580          0.9138          0.0001          0.8360          2.3799       1677.2114       3281.4553       7809.5356       3991.5955          1.9565
 2777.6423         70.3829         67.9547          0.3567          0.8189          0.0001          0.8821          2.3928       1652.5500       3221.8301       7709.1953       3954.2219          1.9496
 2777.7949         65.3191         65.7868          0.3484          0.7107          0.0001          0.8678          2.3884       1663.8667       3209.4055       7665.3442       3973.9792          1.9289
 2777.9473         63.0905         67.2887          0.3481          0.7147          0.0001          0.8698          2.3882       1662.4086       3208.6665       7662.9375       3970.1643          1.9301
 2778.0996         70.2289         67.5622          0.3558          0.8283          0.0001          0.9046          2.4019       1639.7476       3205.2209       7698.6206       3938.5098          1.9547
 2778.2520         71.6996         66.7791          0.3651          0.8286          0.0001          0.8855          2.3990       1651.7493       3221.1724       7727.5923       3962.5464          1.9502
 2778.4043         68.6792         65.8005          0.3582          0.9173          0.0001          0.5164          2.4266       1904.7594       3548.0991       8609.8174       4622.0894          1.8628
 2778.5569         72.8297         67.2053          0.3282          0.5768          0.0671          0.3499          2.3283       1776.5978       3291.0974       7662.6621       4136.4526          1.8525
 2778.7092         75.7398         68.2967          0.3044          0.3072          0.2049          0.1772          2.1851       1671.7225       3050.8669       6666.4497       3652.8811          1.8250
 2778.8616         71.1185         67.2544          0.2969          0.2683          0.2474          0.0965          2.1297       1726.0833       3099.7634       6601.5659       3676.0393          1.7958
 2779.0139         67.5617         67.9315          0.3002          0.1980          0.2477          0.0972          2.1242       1725.0281       3081.9971       6546.7783       3664.3049          1.7866
 2779.1665         70.4000         66.3238          0.3088          0.1373          0.2393          0.1182          2.1293       1741.7496       3090.7815       6581.2012       3708.7078          1.7745
 2779.3188         72.5710         65.9543          0.3108          0.1199          0.2419          0.1152          2.1245       1782.6970       3137.1143       6664.7993       3787.3398          1.7598
 2779.4712         75.4508         66.5374          0.3124          0.1423          0.2597          0.0861          2.1029       1736.4901       3081.3967       6479.8691       3651.6650          1.7745
 2779.6235         73.4078         68.0548          0.3097          0.1790          0.2764          0.0565          2.0913       1750.6478       3101.5979       6486.3716       3661.1299          1.7717
 2779.7759         68.5490         66.6201          0.3130          0.1612          0.2889          0.0380          2.0889       1721.5941       3053.5759       6378.6152       3596.2380          1.7737
 2779.9285         69.6327         67.6632          0.3153          0.1657          0.2915          0.0358          2.0853       1659.5701       2977.2473       6208.4536       3460.7014          1.7940
 2780.0808         74.9291         65.9181          0.3169          0.1679          0.2904          0.0391          2.0866       1613.0513       2920.3208       6093.5415       3365.7930          1.8104
 2780.2332         76.2423         68.5324          0.3113          0.1464          0.2845          0.0434          2.0940       1680.7914       3000.1931       6282.4048       3519.5774          1.7850
