~VERSION INFORMATION
 VERS.                          2.0   : CWLS LOG ASCII STANDARD - VERSION 2.0
 WRAP.                          NO    : ONE LINE PER DEPTH STEP
#
~Well Information Section
#MNEM     .UNIT     DATA                DESCRIPTION
#-----    -----     --------            --------------
 STRT     .M        154.9908            : START DEPTH
 STOP     .M        2907.9443           : END DEPTH
 STEP     .M        0.0000              : INCREMENT DEPTH
 NULL     .         -999.2500           : NULL VALUE
 COMP     .                             :
 WELL     .         Well-1P             : WELL NAME
 EKB      .M        40.0000             : KELLY BUSHING ELEVATION
 EGL      .M        33.0000             : GROUND LEVEL ELEVATION
 FLD      .                              :
 LOC      . X = 300000.7600 Y = 2000000.00: WELL LOCATION
 PROV     .                              :
 SRVC     .                              :
 PROV     .                              :
 DATE     .                              :
 UWI      .         O.1051878.20         : UNIQUE WELL ID
 API      .                              :
#
~Curve Information Section
#MNEM     .UNIT               Curve #DESCRIPTION
#-----    -----               ----   --------------
 DEPTH    .M                  : 1     Name = Domain Curve - Type = DEPTH
 GR       .gAPI               : 2     Name = Gamma Ray 1 - Type = Gamma Ray
 RT      .ohm-m              : 3     Name = Resistivity - Type = Resistivity
 NPHI     .ft3/ft3            : 4     Name = Neutron Porosity 1 - Type = Neutron Porosity
 SW       .Dec                : 5     Name = Water Saturation 1 - Type = Water Saturation
 PHIE     .Dec                : 6     Name = Porosity 1 - Type = Porosity
 VCL      .Dec                : 7     Name = Vcl - Type = Volumetric
 RHOBMOD  .g/cc               : 8     Name = Density - Type = Density
 DTSM     .m/s                : 9     Name = S-wave - Type = S-wave
 DT       .m/s                : 10    Name = P-wave - Type = P-wave
 PIMPMOD  .(m/s)*(g/cc)       : 11    Name = P-Impedance_trans - Type = P-Impedance
 SIMPMOD  .(m/s)*(g/cc)       : 12    Name = S-Impedance_trans - Type = S-Impedance
 VPVSMOD  .unitless           : 13    Name = VpVs_Ratio_trans - Type = VpVs_Ratio
~A (ASCII LOG DATA)
# ...
 2676.7537         93.3465          1.4393          0.3564          0.5575          0.1871          0.4232          2.3155       1651.2133       3056.6453       7077.6621       3823.3843          1.8512
 2676.9060         95.0110          1.3185          0.3452          0.6302          0.1544          0.4606          2.3665       1746.6554       3197.6111       7567.1465       4133.4600          1.8307
 2677.0583         94.8276          1.2287          0.3319          0.6052          0.1661          0.4718          2.3429       1694.3286       3126.7439       7325.6484       3969.6426          1.8454
 2677.2107         98.6267          1.1928          0.3210          0.6085          0.1633          0.4424          2.3543       1726.5975       3165.5142       7452.5698       4064.9287          1.8334
 2677.3633         93.5666          1.1778          0.3161          0.5973          0.1680          0.4350          2.4384       1739.9523       3146.7371       7673.0039       4242.6997          1.8085
 2677.5156         89.3992          1.1317          0.3241          0.6474          0.1476          0.4890          2.3728       1751.2963       3210.1055       7616.9385       4155.4761          1.8330
 2677.6680         86.6480          1.1495          0.3353          0.7377          0.1094          0.6170          2.4144       1744.9897       3236.2651       7813.6387       4213.1035          1.8546
 2677.8203         86.6919          1.1610          0.3447          0.7103          0.1156          0.6622          2.3925       1661.0061       3128.5757       7485.1172       3973.9570          1.8835
 2677.9729         84.6833          1.2392          0.3407          0.8746          0.0616          0.7157          2.4814       1653.9419       3166.5850       7857.5640       4104.0913          1.9146
 2678.1252         84.1565          1.3390          0.3411          0.9744          0.0296          0.7640          2.4530       1646.7863       3214.3896       7884.8979       4039.5669          1.9519
 2678.2776         82.9259          1.3986          0.3395          0.9994          0.0191          0.7891          2.4667       1667.9291       3249.2632       8014.9575       4114.2808          1.9481
 2678.4299         88.5797          1.4767          0.3498          0.9942          0.0216          0.7824          2.4638       1663.6169       3241.9866       7987.6064       4098.8193          1.9488
 2678.5825         92.0479          1.5718          0.3585          0.9888          0.0239          0.7765          2.4607       1659.0100       3234.3445       7958.7515       4082.3259          1.9496
 2678.7349         89.2036          1.5131          0.3627          0.9044          0.0526          0.7271          2.4183       1587.9503       3120.3264       7545.8853       3840.1401          1.9650
 2678.8872         88.9179          1.3565          0.3695          0.8442          0.0838          0.6918          2.3702       1566.3567       3074.2805       7286.6597       3712.5786          1.9627
 2679.0396         88.6321          1.2602          0.3698          1.0000          0.0694          0.7067          2.3645       1528.0125       3078.3704       7278.8066       3612.9856          2.0146
 2679.1919         88.3464          1.2591          0.3711          1.0000          0.0094          0.8254          2.4156       1661.2462       3265.3757       7887.8418       4012.9065          1.9656
 2679.3445         88.0606          1.2658          0.3784          1.0000          0.0013          0.9057          2.4339       1639.1852       3236.9785       7878.4824       3989.6130          1.9747
 2679.4968         86.2420          1.2955          0.3880          1.0000          0.0001          1.0000          2.4525       1585.2933       3164.5396       7761.0337       3887.9321          1.9962
 2679.6492         83.7070          1.2819          0.3919          1.0000          0.0004          0.9448          2.4046       1607.8448       3208.9888       7716.3340       3866.2236          1.9958
 2679.8015         85.9747          1.2418          0.3916          1.0000          0.0012          0.9088          2.4110       1631.0518       3234.9512       7799.4673       3932.4658          1.9834
 2679.9541         86.7142          1.1941          0.3918          1.0000          0.0014          0.9034          2.4118       1634.1997       3238.4309       7810.4473       3941.3628          1.9817
 2680.1064         92.8682          1.1698          0.3946          1.0000          0.0019          0.8927          2.4133       1640.2140       3245.0291       7831.2285       3958.3284          1.9784
 2680.2588         89.4904          1.1688          0.3914          1.0000          0.0013          0.9054          2.4115       1633.0347       3237.1448       7806.3745       3938.0630          1.9823
 2680.4111         86.3487          1.2639          0.3885          1.0000          0.0020          0.8911          2.4135       1641.0414       3245.9304       7834.0532       3960.6536          1.9780
 2680.5637         82.6724          1.3313          0.3792          1.0000          0.0044          0.8596          2.4164       1655.0171       3260.6660       7879.0732       3999.1831          1.9702
 2680.7161         83.9968          1.3283          0.3699          1.0000          0.0115          0.8158          2.4143       1660.5767       3263.6423       7879.4116       4009.1301          1.9654
 2680.8684         79.2098          1.3133          0.3629          1.0000          0.0220          0.7813          2.4043       1646.0625       3242.1543       7795.1113       3957.6279          1.9696
 2681.0208         81.8083          1.3446          0.3732          1.0000          0.0220          0.7814          2.4043       1646.0997       3242.2058       7795.2354       3957.7175          1.9696
 2681.1731         83.5835          1.3253          0.3891          1.0000          0.0131          0.8091          2.4130       1659.3488       3261.4827       7869.9580       4004.0088          1.9655
 2681.3257         87.4915          1.3204          0.4038          1.0000          0.0073          0.8374          2.4164       1660.4362       3265.4602       7890.6577       4012.2778          1.9666
 2681.4780         85.3399          1.2912          0.4083          1.0000          0.0063          0.8440          2.4166       1659.3143       3264.6501       7889.3535       4009.8989          1.9675
 2681.6304         81.8740          1.2707          0.4066          1.0000          0.0090          0.8276          2.4158       1661.2271       3265.5542       7888.9263       4013.1924          1.9657
 2681.7827         80.9244          1.2780          0.3963          1.0000          0.0201          0.7864          2.4064       1649.5945       3247.0818       7813.7773       3969.5840          1.9684
 2681.9353         78.2119          1.3358          0.3925          1.0000          0.0431          0.7405          2.3783       1596.3539       3175.6721       7552.7007       3796.6084          1.9893
 2682.0876         79.3305          1.3206          0.3905          1.0000          0.0653          0.7114          2.3479       1533.8990       3094.1787       7264.8218       3601.4414          2.0172
 2682.2400         77.3863          1.2922          0.3874          1.0000          0.0643          0.7126          2.3494       1536.9403       3098.1270       7278.7397       3610.8877          2.0158
 2682.3923         81.4502          1.2015          0.3854          1.0000          0.0363          0.7515          2.3871       1613.7681       3198.6548       7635.5088       3852.2258          1.9821
 2682.5449         82.5610          1.2476          0.3866          1.0000          0.0252          0.7737          2.4008       1639.7476       3233.4810       7762.9409       3936.7058          1.9719
 2682.6973         79.4059          1.5039          0.3901          1.0000          0.0196          0.7878          2.4069       1650.4731       3248.3201       7818.3813       3972.5237          1.9681
