~VERSION INFORMATION
 VERS.                          2.0   : CWLS LOG ASCII STANDARD - VERSION 2.0
 WRAP.                          NO    : ONE LINE PER DEPTH STEP
#
~Well Information Section
#MNEM     .UNIT     DATA                DESCRIPTION
#-----    -----     --------            --------------
 STRT     .M        154.9908            : START DEPTH
 STOP     .M        2907.9443           : END DEPTH
 STEP     .M        0.0000              : INCREMENT DEPTH
 NULL     .         -999.2500           : NULL VALUE
 COMP     .                             :
 WELL     .         Well-1P             : WELL NAME
 EKB      .M        40.0000             : KELLY BUSHING ELEVATION
 EGL      .M        33.0000             : GROUND LEVEL ELEVATION
 FLD      .                              :
 LOC      . X = 300000.7600 Y = 2000000.00: WELL LOCATION
 PROV     .                              :
 SRVC     .                              :
 PROV     .                              :
 DATE     .                              :
 UWI      .         O.1051878.20         : UNIQUE WELL ID
 API      .                              :
#
~Curve Information Section
#MNEM     .UNIT               Curve #DESCRIPTION
#-----    -----               ----   --------------
 DEPTH    .M                  : 1     Name = Domain Curve - Type = DEPTH
 GR       .gAPI               : 2     Name = Gamma Ray 1 - Type = Gamma Ray
 RT      .ohm-m              : 3     Name = Resistivity - Type = Resistivity
 NPHI     .ft3/ft3            : 4     Name = Neutron Porosity 1 - Type = Neutron Porosity
 SW       .Dec                : 5     Name = Water Saturation 1 - Type = Water Saturation
 PHIE     .Dec                : 6     Name = Porosity 1 - Type = Porosity
 VCL      .Dec                : 7     Name = Vcl - Type = Volumetric
 RHOBMOD  .g/cc               : 8     Name = Density - Type = Density
 DTSM     .m/s                : 9     Name = S-wave - Type = S-wave
 DT       .m/s                : 10    Name = P-wave - Type = P-wave
 PIMPMOD  .(m/s)*(g/cc)       : 11    Name = P-Impedance_trans - Type = P-Impedance
 SIMPMOD  .(m/s)*(g/cc)       : 12    Name = S-Impedance_trans - Type = S-Impedance
 VPVSMOD  .unitless           : 13    Name = VpVs_Ratio_trans - Type = VpVs_Ratio
~A (ASCII LOG DATA)
# ...
 2573.1216         91.0608          1.6520          0.3752          1.0000          0.0007          0.9281          2.4671       1850.2534       3487.9434       8605.1045       4564.7603          1.8851
 2573.2739         88.7441          1.6377          0.3735          1.0000          0.0012          0.9089          2.4703       1887.3951       3532.5376       8726.4277       4662.4321          1.8716
 2573.4265         93.3731          1.6168          0.3775          1.0000          0.0049          0.8552          2.4759       1940.7958       3594.4170       8899.4170       4805.2163          1.8520
 2573.5789         96.1636          1.5438          0.3907          1.0000          0.0054          0.8508          2.4760       1914.1118       3560.9050       8816.8008       4739.3408          1.8603
 2573.7312         97.6196          1.4854          0.3934          1.0000          0.0060          0.8465          2.4760       1890.0421       3530.6396       8741.8643       4679.7446          1.8680
 2573.8835         89.2000          1.5144          0.3854          1.0000          0.0121          0.8131          2.4732       1800.9216       3416.9307       8450.7529       4454.0396          1.8973
 2574.0359         92.8394          1.4777          0.3726          1.0000          0.0086          0.8297          2.4384       1737.1941       3352.2502       8174.1270       4235.9741          1.9297
 2574.1885         90.9387          1.4205          0.3685          1.0000          0.0056          0.8491          2.4760       1798.8909       3417.6819       8462.1807       4454.0537          1.8999
 2574.3408         92.7039          1.4650          0.3785          1.0000          0.0051          0.8532          2.4760       1797.7843       3416.6619       8459.6553       4451.3140          1.9005
 2574.4932         91.2674          1.5185          0.3838          1.0000          0.0065          0.8424          2.4760       1746.0662       3351.4966       8298.3057       4323.2598          1.9195
 2574.6455         84.0646          1.6010          0.3754          1.0000          0.0077          0.8346          2.4757       1747.2120       3352.2266       8299.1074       4325.5728          1.9186
 2574.7981         80.6022          1.7041          0.3707          1.0000          0.0102          0.8214          2.4745       1801.8730       3418.8940       8460.0527       4458.7349          1.8974
 2574.9504         80.4704          1.8180          0.3724          1.0000          0.0148          0.8027          2.4709       1798.2429       3412.5862       8432.1592       4443.2783          1.8977
 2575.1028         76.7714          1.9719          0.3851          1.0000          0.0104          0.8207          2.4744       1747.5127       3351.3228       8292.5127       4324.0454          1.9178
 2575.2551         76.8054          2.1091          0.3901          1.0000          0.0089          0.8281          2.4752       1747.6512       3352.1807       8297.3174       4325.7861          1.9181
 2575.4077         73.3495          2.3204          0.3965          1.0000          0.0134          0.8080          2.4722       1799.8157       3415.0588       8442.7080       4449.5044          1.8974
 2575.5601         76.9284          2.6326          0.3988          1.0000          0.0175          0.7939          2.4684       1794.5708       3407.1416       8410.1885       4429.7188          1.8986
 2575.7124         81.6479          2.5298          0.3966          1.0000          0.0173          0.7945          2.4686       1938.4764       3585.8965       8852.1445       4785.3232          1.8499
 2575.8647         79.2991          2.5429          0.3978          1.0000          0.0131          0.8090          2.4724       1943.6732       3593.7910       8885.2891       4805.5376          1.8490
 2576.0171         91.1996          1.8458          0.4008          1.0000          0.0152          0.8012          2.4705       1941.3269       3590.1121       8869.3721       4796.0483          1.8493
 2576.1697         92.7347          1.6541          0.3986          1.0000          0.0030          0.8760          2.4376       1922.4661       3586.3159       8742.0029       4686.2031          1.8655
 2576.3220         85.4153          1.8827          0.3990          1.0000          0.0042          0.8615          2.4387       1875.2251       3526.4453       8599.9424       4573.1113          1.8805
 2576.4744         79.9522          2.4747          0.3997          1.0000          0.0164          0.7973          2.4325       1876.2871       3521.8691       8566.9463       4564.0684          1.8770
 2576.6267         81.6744          2.3539          0.4009          1.0000          0.0324          0.7586          2.4514       1854.6608       3477.8928       8525.7070       4546.5156          1.8752
 2576.7793         83.5866          1.7459          0.3833          1.0000          0.0105          0.8200          2.4149       1730.7628       3351.1912       8092.7920       4179.6191          1.9363
 2576.9316         91.7961          1.6372          0.3569          1.0000          0.0117          0.8146          2.4141       1784.4659       3417.3730       8249.8799       4307.8789          1.9151
 2577.0840         92.6773          1.5982          0.3356          1.0000          0.0180          0.7923          2.4085       1777.0490       3405.9534       8203.2383       4280.0225          1.9166
 2577.2363         88.1504          1.5500          0.3199          1.0000          0.0309          0.7615          2.3939       1751.0248       3370.2795       8068.1118       4191.7783          1.9247
 2577.3889         88.2510          1.4538          0.3197          0.9644          0.0575          0.7208          2.3788       1802.9106       3413.3745       8119.7349       4288.7637          1.8933
 2577.5413         90.4331          1.3761          0.3312          0.8512          0.0896          0.6848          2.4403       1825.1199       3369.1482       8221.7324       4453.8398          1.8460
 2577.6936         94.9252          1.3367          0.3433          0.8016          0.1063          0.6537          2.4159       1785.1899       3304.2363       7982.7046       4312.8403          1.8509
 2577.8459         98.3938          1.3353          0.3450          0.7637          0.1221          0.5944          2.4000       1769.2802       3269.8076       7847.5386       4246.2725          1.8481
 2577.9983         96.0738          1.3460          0.3460          0.7542          0.1275          0.5383          2.3251       1867.6960       3412.1584       7933.6094       4342.5801          1.8269
 2578.1509         93.8691          1.4045          0.3476          0.7628          0.1245          0.5386          2.3305       1878.4836       3427.8110       7988.5132       4377.8062          1.8248
 2578.3032         92.4459          1.3875          0.3618          0.7363          0.1331          0.5599          2.3875       1852.5942       3363.3384       8029.9707       4423.0688          1.8155
 2578.4556         91.8251          1.3944          0.3657          0.7472          0.1255          0.6292          2.4769       1756.7523       3221.0059       7978.1099       4351.2998          1.8335
 2578.6079         88.1684          1.4487          0.3606          1.0000          0.0225          0.7801          2.4038       1714.8519       3327.4380       7998.4956       4122.1611          1.9404
 2578.7605         90.5076          1.4210          0.3515          0.9604          0.1131          0.6395          2.4188       1768.6379       3319.3376       8028.8145       4277.9814          1.8768
 2578.9128         87.9264          1.4345          0.3437          0.9126          0.1341          0.5751          2.3947       1737.0270       3262.2856       7812.1958       4159.6587          1.8781
 2579.0652         91.7599          1.4353          0.3405          0.7293          0.1327          0.6157          2.3756       1714.1698       3194.1460       7588.0137       4072.1819          1.8634
